,ID,Station Name,City,State,ZIP,County,latitude,longitude
0,49941,Town of Penfield - Library,Penfield,NY,14526,Monroe,43.1396,-77.456
1,116756,Village of Webster,Webster,NY,14580,Monroe,43.2196,-77.4616
2,149787,HOTSARA CHARGER STATION 1,Saranac Lake,NY,12983,Franklin,44.3243,-74.133
3,157942,Houghton College,Houghton,NY,14744,Allegany,42.4228,-78.2063
4,182295,NYC FLEET DPRMBLOT8_1_L3,Midland Beach,NY,10305,Richmond,40.5973,-74.0768
5,183763,CHEEKTOWAGA BROADWAY #1,Cheektowaga,NY,14227,Erie,42.8853,-78.7462
6,220960,BRT STATION 1,Sunset Park,NY,11220,Kings,40.6412,-74.0133
7,223263,Sharon Chevrolet,Liverpool,NY,13090,Onondaga,43.1528,-76.2235
8,224589,WW BMW WWBMW 2,Nanuet,NY,10954,Rockland,41.0977,-74.0109
9,229400,CORNELL STATION3,Ithaca,NY,14853,Tompkins,42.4474,-76.4837
10,231033,New Hyde Park - 2298 Jericho Turnpike,New Hyde Park,NY,11040,Nassau,40.7294,-73.6828
11,194027,NYSERDA,Albany,NY,12205,Albany,42.7198,-73.8207
12,115245,White Fences Inn Water Mill - Tesla Destination,Water Mill,NY,11976,Suffolk,40.9209,-72.3491
13,44206,Poughkeepsie Nissan,Wappingers Falls,NY,12590,Dutchess,41.595,-73.8876
14,195668,1235 Linden Blvd,Brooklyn,NY,11212,Kings,40.6625,-73.9145
15,229076,Village Dodge Inc,Hudson,NY,12534,Columbia,42.247,-73.7552
16,164154,SAVARINO COMPAN BRL 5,Buffalo,NY,14204,Erie,42.884,-78.8597
17,175753,EXECUTIVE PARK #2,Montebello,NY,10901,Rockland,41.1177,-74.1241
18,154778,HGI TROY HILTON TROY 1.1,Troy,NY,12180,Rensselaer,42.7287,-73.6683
19,225676,92746 CHARGEPOINT 1,New York,NY,10065,New York,40.7651,-73.9638
20,223120,Greymoor Way - Building 2,Baldwinsville,NY,13027,Onondaga,43.162,-76.3237
21,174457,RRH CARTER 2FLGW1,Rochester,NY,14621,Monroe,43.1834,-77.6043
22,170431,"Montauk, NY - Tesla Supercharger",Montauk,NY,11954,Suffolk,41.0459,-71.944
23,213092,CMH STATION 1,Hudson,NY,12534,Columbia,42.247,-73.7552
24,143298,LIVEWIRE DCFAST HOG OUT,Bellmore,NY,11710,Nassau,40.6729,-73.5365
25,164452,FOODBANK LATHAM PARKING TWO,Latham,NY,12110,Albany,42.7462,-73.763
26,180158,RIVERHEAD RIVER 2 #3,Riverhead,NY,11901,Suffolk,40.9262,-72.652
27,191437,PEAK POINT APT PEAK POINT EV1,Ballston Spa,NY,12020,Saratoga,43.005,-73.8486
28,167630,Malden Travel Plaza,Saugerties,NY,12477,Ulster,42.0738,-73.9797
29,115229,Hampton Inn Rome - Tesla Destination,Rome,NY,13441,Oneida,43.2264,-75.4083
30,223102,Partridge Hill Apartments,Rensselaer,NY,12144,Rensselaer,42.6359,-73.7219
31,154518,TONAWANDA YPR POOL PLAZA 2,Buffalo,NY,14223,Erie,42.9731,-78.845
32,169509,SWL SARANAC 1.3,Saranac Lake,NY,12983,Franklin,44.3243,-74.133
33,114957,La Tourelle Hotel & Spa - Tesla Destination,Ithaca,NY,14850,Tompkins,42.4406,-76.4966
34,223410,FETZNER STATION 1,Rochester,NY,14616,Monroe,43.2346,-77.6577
35,165396,ADAMS STATION 301 ELKIN CT,Delmar,NY,12054,Albany,42.6158,-73.8373
36,226543,Inn at Houghton Creek,Houghton,NY,14744,Allegany,42.4228,-78.2063
37,182198,SSCCA SSCC - 01,Saratoga Springs,NY,12866,Saratoga,43.0708,-73.7408
38,162249,NATIONAL GRID HOLIDAY VALLEY,Ellicottville,NY,14731,Cattaraugus,42.2959,-78.6606
39,162223,NATIONAL GRID EMPIRE STATE,Saratoga Springs,NY,12866,Saratoga,43.0708,-73.7408
40,201870,Central Parking - 109 E 58th Street,New York,NY,10022,New York,40.7571,-73.9657
41,202142,FUCCILLOHYUNDAI CPE-250 #2,Grand Island,NY,14072,Erie,43.0183,-78.9591
42,229918,CDPHP,Clifton Park,NY,12065,Saratoga,42.8499,-73.7851
43,123126,The Wedge,Mt Sinai,NY,11766,Suffolk,40.9271,-73.0127
44,203019,OMG EV CHARGER EVCHARGER3,Cooperstown,NY,13326,Otsego,42.7005,-74.9243
45,202953,COMMCTR 59 N PUTT2,New Paltz,NY,12561,Ulster,41.7464,-74.1092
46,228833,Bayport Fire District,Bayport,NY,11705,Suffolk,40.7444,-73.0542
47,192609,AECSOLAR STATION 1 AEC,Albany,NY,12203,Albany,42.7003,-73.8575
48,169060,Rapidpark 205 W 101st Street - Tesla Destination,New York,NY,10025,New York,40.7975,-73.9683
49,189547,Kew Garage,Kew Gardens,NY,11415,Queens,40.7069,-73.8297
50,175105,PRIMA LOFTS LL ALB LOFTS 1.5,Menands,NY,12204,Albany,42.6847,-73.7354
51,191245,799 SENECA STATION 4,Buffalo,NY,14210,Erie,42.8614,-78.8205
52,181661,HAMPTON INN STATION 4,Staten Island,NY,10314,Richmond,40.6039,-74.1472
53,189362,Duford Studios,New York,NY,10028,New York,40.7763,-73.9529
54,199474,WHITE PLAINS WP CT4K-2 SALES,Elmsford,NY,10523,Westchester,41.0572,-73.8136
55,115074,Parkit 27 N Moore Street - Tesla Destination,New York,NY,10013,New York,40.7185,-74.0025
56,174028,SULLIVAN PARK CENTER WAY 1,Corning,NY,14830,Steuben,42.1383,-77.0475
57,158535,CENTROTHERM CENTRO F1,Albany,NY,12202,Albany,42.6413,-73.7641
58,114938,Luce Ristorante - Tesla Destination,East Norwich,NY,11732,Nassau,40.8472,-73.5349
59,180636,PICOTTE 11 CORPORATE 2,Albany,NY,12211,Albany,42.713,-73.7739
60,233118,PVA STATION 3,Halfmoon,NY,12065,Saratoga,42.8499,-73.7851
61,207731,1 WATERLINE STATION#2,New York,NY,10069,New York,40.778,-73.9884
62,226521,Maguire Honda of Ithaca,Ithaca,NY,14850,Tompkins,42.4406,-76.4966
63,162320,STATION 1 @ VIL VICTOR,Victor,NY,14564,Ontario,42.9866,-77.418
64,146604,STATION TOR1 CRAWFORD PARK S,Rye Brook,NY,10573,Westchester,41.0222,-73.6798
65,150533,528 W 162nd Garage-PARK-it - Tesla Destination,Manhattan,NY,10033,New York,40.8496,-73.9356
66,227084,Reaves Dental,New Hartford,NY,13413,Oneida,43.0654,-75.2906
67,114923,The Fern Lodge - Tesla Destination,Chestertown,NY,12817,Warren,43.6451,-73.8066
68,115228,"Home2 Suites by Hilton Rochester Henrietta, NY - Tesla Destination",Rochester,NY,14623,Monroe,43.0834,-77.6344
69,154724,VIC AND CAMPUS SUGAR SHACK 1.1,Paul Smiths,NY,12970,Franklin,44.445,-74.2664
70,102325,Colonie Center - Tesla Supercharger,Albany,NY,12205,Albany,42.7198,-73.8207
71,213551,AT LABS ATL STATION 1,Clifton Park,NY,12065,Saratoga,42.8499,-73.7851
72,184902,RTS IRONDEQUOIT #2,Irondequoit,NY,14617,Monroe,43.2203,-77.5994
73,149880,NY STATE PARKS JAMES BAIRD,Pleasant Valley,NY,12569,Dutchess,41.747,-73.8143
74,164052,GREECE TOWN HAL GREECE NORTH 1,Rochester,NY,14612,Monroe,43.2566,-77.6652
75,181108,PICOTTE 22 CORPORATE 2,Albany,NY,12211,Albany,42.713,-73.7739
76,225119,W&W Glass,Clarkstown,NY,10954,Rockland,41.0977,-74.0109
77,223045,STONE MILL STONE MILL,Little Falls,NY,13365,Herkimer,43.0474,-74.8606
78,115113,iPark NYU 377 E 33rd Street - Tesla Destination,New York,NY,10016,New York,40.7443,-73.9781
79,182985,LARKIN726RRAMPP LARKIN 3,Buffalo,NY,14210,Erie,42.8614,-78.8205
80,217197,110 MAPLE AVE STATION 5,Rockville Centre,NY,11570,Nassau,40.6637,-73.638
81,211921,South Lewis Senior High School,Turin,NY,13473,Lewis,43.6441,-75.4132
82,214708,South Port Shopping Center - Tesla Supercharger,Shirley,NY,11967,Suffolk,40.8015,-72.8676
83,152216,Potter Park,Fairport,NY,14450,Monroe,43.0892,-77.436
84,188116,Mendon Public Library,Honeoye Falls,NY,14472,Monroe,42.9695,-77.5781
85,115062,Icon Parking 237 West Thames - Tesla Destination,New York,NY,10280,New York,40.7105,-74.0163
86,221322,Prestige Parking Corp,New York,NY,10022,New York,40.7571,-73.9657
87,94843,Village of Homer,Homer,NY,13077,Cortland,42.6726,-76.1878
88,220701,Empire Outlets Garage,Staten Island,NY,10301,Richmond,40.6316,-74.0927
89,150637,Best Western Saranac Lake - Tesla Destination,Saranac Lake,NY,12983,Franklin,44.3243,-74.133
90,162237,NATIONAL GRID KOHLS OLEAN,Olean,NY,14760,Cattaraugus,42.0821,-78.426
91,202804,MB OF BUFFALO DC MERC BUFF 2,Williamsville,NY,14221,Erie,42.9685,-78.7492
92,123391,NYS ORDA GORE MOUNTAIN,North Creek,NY,12853,Warren,43.6978,-73.986
93,115151,iPark 530 E 80th Street - Tesla Destination,New York,NY,10075,New York,40.7143,-74.006
94,118705,BURNS MGT OXFORD 2,Albany,NY,12203,Albany,42.7003,-73.8575
95,182115,OLYMPIC SPORTS  SPORTS 9,Lake Placid,NY,12946,Essex,44.2796,-73.982
96,162449,BMW FREEPORT STATION 01,Freeport,NY,11520,Nassau,40.6536,-73.5866
97,187554,CENTROTHERM CENTROL F2,Albany,NY,12202,Albany,42.6413,-73.7641
98,187172,Exit 34 (Canastota),Canastota,NY,13032,Madison,43.0878,-75.7602
99,44348,Simmons Rockwell Nissan,Horseheads,NY,14845,Chemung,42.1805,-76.8345
100,173961,RRH RIEDMAN CAMP3,Rochester,NY,14617,Monroe,43.2203,-77.5994
101,201193,Four Brothers Dover Plains,Dover Plains,NY,12522,Dutchess,41.7351,-73.587
102,173966,RRH RIEDMAN CAMPUS,Rochester,NY,14617,Monroe,43.2203,-77.5994
103,162128,BURNS MGT SGA 5,Saratoga Springs,NY,12866,Saratoga,43.0708,-73.7408
104,233182,KIA OF GREECE ABB STATION 1,Rochester,NY,14626,Monroe,43.2126,-77.704
105,180117,854ELLICOTT 854 ELLICOTT 2,Buffalo,NY,14203,Erie,42.8939,-78.8681
106,115076,Standard Parking 270 Greenwich - Tesla Destination,New York,NY,10007,New York,40.7139,-74.007
107,114944,Tuthilltown Spirits - Tesla Destination,Gardiner,NY,12525,Ulster,41.6576,-74.1672
108,197855,597 Clarkson Ave,Brooklyn,NY,11203,Kings,40.6505,-73.9349
109,204920,INN SQ INN SQ GW 4,Rochester,NY,14604,Monroe,43.1577,-77.608
110,183121,NAT GRID WRKPLC SOC LOT2 STN 3,Syracuse,NY,13202,Onondaga,43.041,-76.1489
111,162264,RPI 1 RPI 1,Troy,NY,12180,Rensselaer,42.7287,-73.6683
112,191250,799 SENECA STATION 6,Buffalo,NY,14210,Erie,42.8614,-78.8205
113,234635,MEM. PLZ STATION 2,Pleasantville,NY,10570,Westchester,41.135,-73.7845
114,115001,iPark 112 E 65th Street - Tesla Destination,New York,NY,10065,New York,40.7651,-73.9638
115,152461,286WAE 286 WAS AVE EXT,Albany,NY,12203,Albany,42.7003,-73.8575
116,162282,TOWNOFHEMPSTEAD EAST MARINA 1N,Point Lookout,NY,11569,Nassau,40.5905,-73.5808
117,115118,City Parking RL Mercer Street - Tesla Destination,New York,NY,10025,New York,40.7975,-73.9683
118,162206,NATIONAL GRID KOHLS BUFFALO,Buffalo,NY,14216,Erie,42.9499,-78.8599
119,202164,484 43rd St,Brooklyn,NY,11232,Kings,40.6521,-74.0018
120,217408,35-58 72nd St,Jackson Heights,NY,11372,Queens,40.7513,-73.883
121,115178,Parkright 670 W 43rd Street - Tesla Destination,New York,NY,10036,New York,40.7597,-73.9918
122,227773,TPWC  TPWC 11,Altamont,NY,12009,Albany,42.7063,-74.0193
123,123129,Village of Jordan,Jordan,NY,13080,Onondaga,43.0651,-76.4598
124,230740,LABELLA LABELLA,Latham,NY,12110,Albany,42.7462,-73.763
125,185652,159 WOLF OFFBLD 159 WOLF RIGHT,Albany,NY,12205,Albany,42.7198,-73.8207
126,154172,ECONOLODGE ECONOLODGE 1.1,Malone,NY,12953,Franklin,44.8482,-74.2928
127,195912,WATERVLIET DOME 4,Watervliet,NY,12189,Albany,42.7298,-73.7123
128,192933,TOWNE TV EV 1,Schenectady,NY,12303,Schenectady,42.7823,-73.9448
129,227429,TPWC  TPWC 5,Altamont,NY,12009,Albany,42.7063,-74.0193
130,174638,FMCC FMCC 1,Johnstown,NY,12095,Fulton,43.0069,-74.3715
131,167229,ROCHESTER NY EAST END GW-1,Rochester,NY,14604,Monroe,43.1577,-77.608
132,53442,Ruge's Chevrolet,Millbrook,NY,12545,Dutchess,41.7803,-73.6885
133,191762,NEFJ EV 2,Albany,NY,12203,Albany,42.7003,-73.8575
134,121285,Village of Montour Falls,Montour Falls,NY,14865,Schuyler,42.3437,-76.8396
135,123056,Bear Mountain State Park,Bear Mountain,NY,10911,Orange,41.1609,-74.0608
136,162421,SCHENECTADY LIBERTY-YATES,Schenectady,NY,12305,Schenectady,42.8161,-73.9398
137,183767,CHEEKTOWAGA ALEXANDER #1,Buffalo,NY,14211,Erie,42.9082,-78.8225
138,87725,Prettejohn Public Parking Lot,Livonia,NY,14487,Livingston,42.8135,-77.6635
139,104135,Village of Cherry Valley,Cherry Valley,NY,13320,Otsego,42.7823,-74.7444
140,197068,BROAD MANAGMENT STATION 2,Goshen,NY,10924,Orange,41.3946,-74.3302
141,223112,Towers on the Hudson,Troy,NY,12180,Rensselaer,42.7287,-73.6683
142,155356,Depot Square,Sparkill,NY,10976,Rockland,41.0256,-73.9229
143,225478,ARCHER GREEN MI STATION 1,JAMAICA,NY,11433,Queens,40.6969,-73.7877
144,171438,SRYMCASSB MALTA 1.3,Ballston Spa,NY,12020,Saratoga,43.005,-73.8486
145,223134,La Terazza New City,New City,NY,10956,Rockland,41.1472,-73.9962
146,217125,Shults Resale Center,Dunkirk,NY,14048,Chautauqua,42.4877,-79.3283
147,205826,Northeast Bronx YMCA,Bronx,NY,10466,Bronx,40.8904,-73.8503
148,206908,BORO PARK BORO CHARGE 1,Borough Park,NY,11219,Kings,40.6336,-73.996
149,227071,Bidleman Ford,Auburn,NY,13021,Cayuga,42.93,-76.5626
150,191107,Howard Commons,Rochester,NY,14606,Monroe,43.1685,-77.6845
151,168757,Enterprise Parking 219 E 69th St - Tesla Destination,New York,NY,10021,New York,40.7685,-73.9588
152,224504,ALBANY COUNTY S PEARL STN 1,Albany,NY,12202,Albany,42.6413,-73.7641
153,182058,233 LAKE AVE GROVE 1.2,Saratoga Springs,NY,12866,Saratoga,43.0708,-73.7408
154,223224,Nemer Volkswagen,Latham,NY,12110,Albany,42.7462,-73.763
155,174768,NEW HARTFORD GW-1 1.1,New Hartford,NY,13413,Oneida,43.0654,-75.2906
156,153790,Cabela's Crossing - Tesla Supercharger,Cheektowaga,NY,14225,Erie,42.9255,-78.7481
157,219453,Energy Plus Site 8,New York,NY,10023,New York,40.7764,-73.9827
158,229267,CORNELL STATION6,Ithaca,NY,14853,Tompkins,42.4474,-76.4837
159,233086,Oswego Town Hall,Oswego,NY,13126,Oswego,43.4394,-76.4613
160,227687,City Hall of Plattsburgh,Plattsburgh,NY,12901,Clinton,44.6927,-73.466
161,222574,266 13th St,Brooklyn,NY,11215,Kings,40.6669,-73.9828
162,167129,Oakwood Commons Parking Garage,Poughkeepsie,NY,12601,Dutchess,41.7035,-73.9117
163,168359,Walmart 1949 Fredonia,Fredonia,NY,14063,Chautauqua,42.4333,-79.3339
164,114897,Enterprise 309 Gold Street - Tesla Destination,Brooklyn,NY,11201,Kings,40.694,-73.9903
165,227681,Saint Regis Mohawk Tribe Administration Building,Hogansburg,NY,13655,St. Lawrence,44.9825,-74.6626
166,174183,TATABROOKFIELD #6,New York,NY,10044,New York,40.7618,-73.9505
167,186535,CAYUGA MED CTR. CAYUGA MEDICAL,Ithaca,NY,14850,Tompkins,42.4406,-76.4966
168,197754,Bob Johnson Mazda,Rochester,NY,14623,Monroe,43.0834,-77.6344
169,230833,Radha Krishna Corp / Quality Inn,Syracuse,NY,13203,Onondaga,43.0607,-76.1369
170,123092,Jones Beach Field 6,Wantaugh,NY,11793,Nassau,40.685,-73.5103
171,156046,Abbe Hall,Schenectady,NY,12308,Schenectady,42.8179,-73.9206
172,223236,Wellington Manor Building 4399,Liverpool,NY,13090,Onondaga,43.1528,-76.2235
173,173930,RPI 1 GARAGE L1 S1,Troy,NY,12180,Rensselaer,42.7287,-73.6683
174,223241,550 W. 45th St.,New York,NY,10036,New York,40.7597,-73.9918
175,189521,Holiday Inn - Queensbury,Queensbury,NY,12804,Warren,43.329,-73.6818
176,180635,PICOTTE 11 CORPORATE 4,Albany,NY,12211,Albany,42.713,-73.7739
177,230858,"Atrium Associates, LLC",Syracuse,NY,13202,Onondaga,43.041,-76.1489
178,149273,TOWN GERMANTOWN MUNICIPAL LOT,Germantown,NY,12526,Columbia,42.1219,-73.8625
179,229067,Northville Waterfront Park,Northville,NY,12134,Fulton,43.2662,-74.2288
180,162275,COE ITC SYRACUSE UNIV,Syracuse,NY,13210,Onondaga,43.0354,-76.1282
181,115042,iPark 200 E 70th Street - Tesla Destination,New York,NY,10021,New York,40.7685,-73.9588
182,53976,Steet-Ponte Ford Lincoln Mazda,Yorkville,NY,13495,Oneida,43.1116,-75.2756
183,191505,5935 Broadway,Bronx,NY,10463,Bronx,40.8798,-73.9067
184,201365,HOLYCROSS HOLY CROSS MONA,West Park,NY,12493,Ulster,41.7953,-73.9809
185,99500,Nissan of Staten Island,Staten Island,NY,10306,Richmond,40.5682,-74.1184
186,174507,GARDEN CHARGERS JOVIA ASD 1,Westbury,NY,11590,Nassau,40.7557,-73.5723
187,192676,DELAWARE CHARGE DELAWARE APL 1,Albany,NY,12209,Albany,42.6417,-73.7854
188,226482,South Shore Chrysler Dodge Jeep RAM,Inwood,NY,11096,Nassau,40.6205,-73.7474
189,162182,JATC LU 363 LU 363 1,Harriman,NY,10926,Orange,41.3005,-74.1249
190,114972,Icon Parking 235 W 48th - Tesla Destination,Manhattan,NY,10036,New York,40.7597,-73.9918
191,162364,NATIONAL GRID VENTLATHAM,Watervliet,NY,12189,Albany,42.7298,-73.7123
192,149341,Arcadian Shopping Center - Tesla Supercharger,Ossining,NY,10562,Westchester,41.1673,-73.8538
193,115033,Quik Park Hudson 180 LLC - Tesla Destination,New York,NY,10069,New York,40.778,-73.9884
194,116808,59 Allen Street - Tesla Supercharger,New York,NY,10002,New York,40.7152,-73.9877
195,115106,Rapidpark 35 E 75th Street - Tesla Destination,New York,NY,10021,New York,40.7685,-73.9588
196,205822,Baychester Retail III LLC,Bronx,NY,10475,Bronx,40.8729,-73.8278
197,187883,Gotham Parking,New York,NY,10036,New York,40.7597,-73.9918
198,181868,TCR TOWERS EV STATION 2,Albany,NY,12205,Albany,42.7198,-73.8207
199,226499,James Mitsubishi Greece,Greece,NY,14626,Monroe,43.2126,-77.704
200,171692,ROCHESTER NY WASH SQ GARAGE1,Rochester,NY,14607,Monroe,43.1501,-77.589
201,115212,Cedar Lakes Estate - Tesla Destination,Port Jervis,NY,12771,Orange,41.3786,-74.6691
202,180124,NATIONAL GRID JEFFERSON 2,Watertown,NY,13601,Jefferson,43.9743,-75.9122
203,102347,North Utica Shopping Center - Tesla Supercharger,Utica,NY,13502,Oneida,43.1067,-75.2314
204,120975,ROSENBLUM300 100 GREAT OAKS,Albany,NY,12203,Albany,42.7003,-73.8575
205,162492,BARD ALMNCT NS1-ALMNCT,Red Hook,NY,12504,Dutchess,42.0129,-73.9082
206,115195,Rapidpark 920 Park Avenue - Tesla Destination,New York,NY,10025,New York,40.7975,-73.9683
207,168557,577 Baltic Street - Adam America Real Estate - Tesla Destination,Brooklyn,NY,11217,Kings,40.6816,-73.9798
208,154918,College Park Hall Lot,Schenectady,NY,12308,Schenectady,42.8179,-73.9206
209,147504,ULSTER COUNTY POOL,New Paltz,NY,12561,Ulster,41.7464,-74.1092
210,162228,854ELLICOTT 854 ELLICOTT 8,Buffalo,NY,14203,Erie,42.8939,-78.8681
211,170028,MOHAWK HARBOR01 STATION #1,Schenectady,NY,12305,Schenectady,42.8161,-73.9398
212,170300,"Sam's Club 6428 (Medford, NY)",Medford,NY,11933,Suffolk,40.9297,-72.7423
213,195561,University Avenue Garage Unit 1,Syracuse,NY,13244,Onondaga,43.0377,-76.1396
214,180143,MUNICIPAL EVSE PARK STREET 3,Glens Falls,NY,12801,Warren,43.3115,-73.6448
215,229072,Sleep Inn & Suites Queensbury,Queensbury,NY,12804,Warren,43.329,-73.6818
216,156615,RRH PORTLAND G1,Rochester,NY,14621,Monroe,43.1834,-77.6043
217,181848,854ELLICOTT 134 HIGH ST 9,Buffalo,NY,14203,Erie,42.8939,-78.8681
218,168435,Human Services,Montour Falls,NY,14865,Schuyler,42.3437,-76.8396
219,235792,DEER PARK TANGER EV 3,Deer Park,NY,11729,Suffolk,40.7591,-73.3257
220,180097,BURNS MGT SGA 3,Saratoga Springs,NY,12866,Saratoga,43.0708,-73.7408
221,174729,HARMONY MILLS 1 FALLSVIEW 1.4,Cohoes,NY,12047,Albany,42.7754,-73.7124
222,114978,SunPower by New York State Solar Farm - Tesla Destination,Modena,NY,12548,Ulster,41.6503,-74.1036
223,114977,Buttermilk Falls Inn & Spa - Tesla Destination,Milton,NY,12547,Ulster,41.6535,-73.9772
224,44174,Thruway Nissan,Newburgh,NY,12550,Orange,41.5372,-74.0526
225,175626,TOWN GLENVILLE SENIOR CTR EV4,Glenville,NY,12302,Schenectady,42.88,-73.9913
226,230926,Hudson Hills Golf Course,Ossining,NY,10562,Westchester,41.1673,-73.8538
227,229903,250 Vesey,New York,NY,10281,New York,40.7146,-74.015
228,162176,JATC LU41 JATC LU41,Orchard Park,NY,14127,Erie,42.7639,-78.7518
229,223097,HVCC - Campus Center,Troy,NY,12180,Rensselaer,42.7287,-73.6683
230,223251,Glenville Branch Library,Schenectady,NY,12302,Schenectady,42.88,-73.9913
231,181235,PICOTTE 12 CORPORATE 1,Albany,NY,12211,Albany,42.713,-73.7739
232,163548,DAVISANDKINGDDS STATION 1,Clifton Park,NY,12065,Saratoga,42.8499,-73.7851
233,115128,Icon Parking Sutton 53 - Tesla Destination,New York,NY,10022,New York,40.7571,-73.9657
234,228692,Carman's Plaza,Massapequa,NY,11758,Nassau,40.6682,-73.4588
235,190053,2112-2124 NY 7 EV4,Troy,NY,12180,Rensselaer,42.7287,-73.6683
236,115145,MPG 500 West 30th - Tesla Destination,New York,NY,10001,New York,40.7484,-73.9967
237,223311,Mohonk Mountain House,New Paltz,NY,12561,Ulster,41.7464,-74.1092
238,227081,Town of Lincoln Municipal Building,Canastota,NY,13032,Madison,43.0878,-75.7602
239,180844,RTS ROCH TECH PK1,Rochester,NY,14624,Monroe,43.1216,-77.7311
240,183388,SUNY CORTLAND PROF STUD 1.3,Cortland,NY,13045,Cortland,42.5952,-76.1857
241,115095,Champion Parking W 57th Street - Tesla Destination,New York,NY,10019,New York,40.7651,-73.9858
242,194700,Revel Brooklyn Superhub,Brooklyn,NY,11206,Kings,40.7012,-73.9436
243,233249,COLE GROUP RIVERHILL 2,Menands,NY,12204,Albany,42.6847,-73.7354
244,162214,NATIONAL GRID CHILIS AMHERST,Amherst,NY,14226,Erie,42.9744,-78.7949
245,189501,122 Remsen,Cohoes,NY,12047,Albany,42.7754,-73.7124
246,143172,HUDSON PRESERVE BLDG 7 #7,Watervliet,NY,12189,Albany,42.7298,-73.7123
247,202335,GHMC PARKINGGARAGE1,Middletown,NY,10940,Orange,41.4512,-74.4701
248,122497,Doubletree by Hilton Hotel Utica - Tesla Destination,Utica,NY,13502,Oneida,43.1067,-75.2314
249,212983,STPETERHOSPITAL EV STATION #5,Albany,NY,12208,Albany,42.656,-73.7964
250,227127,GARVEY SIDE 1,Queensbury,NY,12804,Warren,43.329,-73.6818
251,162372,COMMCTR NEW PALTZ TOWN,New Paltz,NY,12561,Ulster,41.7464,-74.1092
252,193467,HIX PLATTSBURGH STATION 2,Plattsburgh,NY,12901,Clinton,44.6927,-73.466
253,212141,ULSTER COUNTY PUBLIC WORKS,Kingston,NY,12401,Ulster,41.9697,-74.0668
254,183663,CAP REP GARAGE 93 NORTH 1.2,Albany,NY,12207,Albany,42.6526,-73.7562
255,223277,St. Mary's of the Assumption,Baldwinsville,NY,13027,Onondaga,43.162,-76.3237
256,115067,iPark NYC 246 E 45 Street - Tesla Destination,New York,NY,10017,New York,40.7517,-73.9707
257,162310,TOWNHALLSTATION HILLSDALE,Hillsdale,NY,12529,Columbia,42.1868,-73.5483
258,143433,BA #1 7 AIRPORT PARK,Latham,NY,12110,Albany,42.7462,-73.763
259,164170,Price Chopper - Tesla Supercharger,Lake Placid,NY,12946,Essex,44.2796,-73.982
260,214277,JAMESTOWN BPU PREND.4TH #2,Jamestown,NY,14701,Chautauqua,42.0928,-79.244
261,223117,Phaeton Motors,New Hartford,NY,13413,Oneida,43.0654,-75.2906
262,194157,FAYETTVL LIBRAY ORCHARD 1,Fayetteville,NY,13066,Onondaga,43.0268,-76.0145
263,162351,ULSTER COUNTY DSS 1,Kingston,NY,12401,Ulster,41.9697,-74.0668
264,122476,MTP Parking 363 Bond Street - Tesla Destination,Brooklyn,NY,11231,Kings,40.6794,-74.0014
265,185448,Albany Parking Authority - Quackenbush Garage,Albany,NY,12207,Albany,42.6526,-73.7562
266,189047,Strathmore,New York,NY,10028,New York,40.7763,-73.9529
267,213449,AKAM Associates,Long Island City,NY,11101,Queens,40.7446,-73.9345
268,181424,SUNY ADIRONDACK SUNY ACC 1.3,Queensbury,NY,12804,Warren,43.329,-73.6818
269,164680,Icon Parking - Patriot Parking,New York,NY,10013,New York,40.7185,-74.0025
270,230927,Hoag Library,Albion,NY,14411,Orleans,43.2398,-78.2068
271,123099,Center Moriches,Center Moriches,NY,11934,Suffolk,40.7997,-72.797
272,150540,One Blue Slip-Greenpoint - Tesla Destination,Brooklyn,NY,11222,Kings,40.7272,-73.9498
273,175243,COLE GROUP COLUMBIA 1,Cohoes,NY,12047,Albany,42.7754,-73.7124
274,222102,NATIONAL GRID CENTURY HOUSE,Cohoes,NY,12047,Albany,42.7754,-73.7124
275,227064,Royal Ford,Oswego,NY,13827,Tioga,42.1138,-76.2528
276,150660,Icon Parking 515 E 72nd Street - Tesla Destination,New York,NY,10021,New York,40.7685,-73.9588
277,155287,MUNICIPAL EVSE DPW,Glens Falls,NY,12801,Warren,43.3115,-73.6448
278,187314,TOWN OF RED HK REDHOOK 4,Red Hook,NY,12571,Dutchess,42.0064,-73.8546
279,226489,Silver Creek Police Department,Silver Creek,NY,14136,Chautauqua,42.5357,-79.1628
280,114930,"Country Inn & Suites By Carlson, Cortland, NY - Tesla Destination",Cortland,NY,13045,Cortland,42.5952,-76.1857
281,190223,DeWitt Travel Plaza,Syracuse,NY,13206,Onondaga,43.0677,-76.1102
282,115133,Quik Park West 23rd Street Garage LLC - Tesla Destination,New York,NY,10011,New York,40.7402,-73.9996
283,165161,Lexington-Grove West Garage,White Plains,NY,10601,Westchester,41.033,-73.7652
284,65270,Cortlandt Town Hall,Cortlandt,NY,10567,Westchester,41.284,-73.8931
285,193748,SCCC AMMERMAN 3,Farmingville,NY,11738,Suffolk,40.8366,-73.0413
286,170743,WHITEFACE MT WHITEFACE 2,Wilmington,NY,12997,Essex,44.3755,-73.8431
287,162298,OSSINING TOWN CEDAR LANE,Ossining,NY,10562,Westchester,41.1673,-73.8538
288,150584,PV Parking 34-11 Steinway - Tesla Destination,Astoria,NY,11101,Queens,40.7446,-73.9345
289,204774,HIGHWAY ADP1,Ballston,NY,12019,Saratoga,42.9192,-73.8552
290,169163,Tesla Gigafactory 2 - Tesla Destination,Buffalo,NY,14220,Erie,42.8441,-78.8182
291,118995,ROSENBLUM300 300 GREAT OAKS,Albany,NY,12203,Albany,42.7003,-73.8575
292,221920,"UBP Riverhead Plaza (Riverhead, NY)",Riverhead,NY,11901,Suffolk,40.9262,-72.652
293,144109,CITYLIGHTS QUEENS LANDING,Long Island City,NY,11109,Queens,40.7454,-73.9575
294,157964,The Inn At Houghton Creek,Houghton,NY,14744,Allegany,42.4228,-78.2063
295,114997,iPark 107 West 13th Street - Tesla Destination,New York,NY,10011,New York,40.7402,-73.9996
296,162258,NORDEN LOFTS NORDEN LOFTS 1,White Plains,NY,10606,Westchester,41.0247,-73.7781
297,181005,SUNY BROOME SUNY BROOME #3,Binghamton,NY,13905,Broome,42.1151,-75.9309
298,230846,GMC 127 East 83rd,Manhattan,NY,10028,New York,40.7763,-73.9529
299,150257,WARRENCOUNTY DPW 3,Lake George,NY,12845,Warren,43.4167,-73.6975
300,182263,SUNY BUFFALO JACOBS 4,Buffalo,NY,14228,Erie,43.0408,-78.7812
301,196257,Carman's Plaza - Tesla Supercharger,Massapequa,NY,11758,Nassau,40.6682,-73.4588
302,203290,HOSELTONCHEVY01 STATION 1,East Rochester,NY,14445,Monroe,43.1128,-77.4906
303,154058,COLE GROUP COLONIE EAST 4,Latham,NY,12110,Albany,42.7462,-73.763
304,223289,Agawam Park,Southampton,NY,11968,Suffolk,40.9043,-72.4103
305,227769,TPWC  TPWC 8,Altamont,NY,12009,Albany,42.7063,-74.0193
306,190279,Angola Travel Plaza West,Angola,NY,14006,Erie,42.6366,-79.0497
307,212085,Colonial Needle,White Plains,NY,10606,Westchester,41.0247,-73.7781
308,185362,ADKHOSPITALITY HAMPTON INN 1.1,Lake George,NY,12845,Warren,43.4167,-73.6975
309,216525,CPP CLUBHOUSE STATION 2,Plainview,NY,11803,Nassau,40.7781,-73.4816
310,162328,EVCHARGE BEACH LOT,Trumansburg,NY,14886,Tompkins,42.521,-76.6681
311,162162,ALBANY COUNTY NURSING HOME,Albany,NY,12211,Albany,42.713,-73.7739
312,223818,SARATOGA HONDA OUTDOOR CHARGER,Saratoga Springs,NY,12866,Saratoga,43.0708,-73.7408
313,181841,854ELLICOTT 589ELLICOTT3 CS,Buffalo,NY,14203,Erie,42.8939,-78.8681
314,227927,MARKET 32 EV EV2,Queensbury,NY,12804,Warren,43.329,-73.6818
315,196565,NYC FLEET DCASCSTHSE_3_L3,Middle Village,NY,11379,Queens,40.7173,-73.8792
316,166427,Pratt and Whitney HMI Metal Powders,Clayville,NY,13322,Oneida,42.9801,-75.251
317,174205,HUDSON PRESERVE BLDG 22 #2,Watervliet,NY,12189,Albany,42.7298,-73.7123
318,123468,LPCL STATION1,Lake Placid,NY,12946,Essex,44.2796,-73.982
319,168650,c/o The Maidstone - Tesla Destination,East Hampton,NY,11937,Suffolk,40.993,-72.179
320,122487,MTP Parking 31-00 47th Ave - Tesla Destination,Long Island City,NY,11101,Queens,40.7446,-73.9345
321,189529,Palisades,Albany,NY,12205,Albany,42.7198,-73.8207
322,145543,U.S.B.STATION#1 ULSTER SAVINGS,Kingston,NY,12401,Ulster,41.9697,-74.0668
323,115010,ABM Parking 13 East 54th Street LLC - Tesla Destination,New York,NY,10022,New York,40.7571,-73.9657
324,152437,TANNERSVILLE TOWN HALL,Tannersville,NY,12485,Greene,42.1956,-74.1338
325,149545,BURNS MGT SCH COMM BLDG 5,Latham,NY,12110,Albany,42.7462,-73.763
326,230803,Sleepy Hollow Public Parking,Sleepy Hollow,NY,10591,Westchester,41.0897,-73.844
327,155026,Bear Metal Works,Buffalo,NY,14206,Erie,42.8811,-78.8104
328,105187,Mohawk Parking Ramp,Buffalo,NY,14202,Erie,42.887,-78.8779
329,174740,BEAVER LAKE BEAVER LAKE 1,Baldwinsville,NY,13027,Onondaga,43.162,-76.3237
330,189516,Glennpeter Jewelers,Clifton Park,NY,12065,Saratoga,42.8499,-73.7851
331,186157,CITY AMSTERDAM EV1,Amsterdam,NY,12010,Montgomery,42.9387,-74.1882
332,175481,SCOTIA EVCHARGE SCOTIA EV1,Scotia,NY,12302,Schenectady,42.88,-73.9913
333,175378,CANTONCHARGE HODSKIN ST 1.1,Canton,NY,13617,St. Lawrence,44.5924,-75.1628
334,185581,1741 RT 9 EV5,Clifton Park,NY,12065,Saratoga,42.8499,-73.7851
335,226540,SpringHill Suites by Marriott Tuckahoe,Tuckahoe,NY,10707,Westchester,40.9569,-73.8198
336,165270,ROCKLAND LANDNG ROCKLAND,South Nyack,NY,10960,Rockland,41.0914,-73.9252
337,174708,CITY HALL 12534 CITY HALL 2,Hudson,NY,12534,Columbia,42.247,-73.7552
338,166331,Dimension Fabricators,Scotia,NY,12302,Schenectady,42.88,-73.9913
339,114890,Standard Parking 15 Metrotech - Tesla Destination,Brooklyn,NY,11201,Kings,40.694,-73.9903
340,191255,799 SENECA STATION 1,Buffalo,NY,14210,Erie,42.8614,-78.8205
341,231093,MAINLOT MAIN LOT LEFT 2,Lakewood,NY,14750,Chautauqua,42.0973,-79.3291
342,180169,STONY BROOK UNV ARENA 2,Stony Brook,NY,11790,Suffolk,40.9068,-73.1277
343,169908,854ELLICOTT 134 HIGH ST 6,Buffalo,NY,14203,Erie,42.8939,-78.8681
344,114910,"Littleman Driggs Parking, LLC - Tesla Destination",Brooklyn,NY,11211,Kings,40.7095,-73.9563
345,194169,498 E 67th St,New York,NY,10065,New York,40.7651,-73.9638
346,115161,iPark Eleventh Avenue Garage Corp. - Tesla Destination,New York,NY,10001,New York,40.7484,-73.9967
347,165393,ADAMS STATION 101 DERZEE CT,Delmar,NY,12054,Albany,42.6158,-73.8373
348,217437,MOHAWK CHEVY MOHAWKCHEVY3,Malta,NY,12020,Saratoga,43.005,-73.8486
349,206915,BORO PARK BORO CHARGE 8,Borough Park,NY,11219,Kings,40.6336,-73.996
350,191112,Rosegate Apartments,Clifton Park,NY,12065,Saratoga,42.8499,-73.7851
351,225820,Jones Beach Energy & Nature Center,Wantagh,NY,11793,Nassau,40.685,-73.5103
352,171555,ADELPHI UNIV STATION 05,Garden City,NY,11530,Nassau,40.7245,-73.6487
353,187814,Beltmont Parking,New York,NY,10028,New York,40.7763,-73.9529
354,225564,ATRIUM EVCHARGE EV6,Clifton Park,NY,12065,Saratoga,42.8499,-73.7851
355,115029,Parkright 169 Ludlow Street - Tesla Destination,New York,NY,10012,New York,40.7255,-73.9983
356,181988,SHG FAIRFIELD 1.2,Queensbury,NY,12804,Warren,43.329,-73.6818
357,193357,TEK AUTOMOTIVE CAPALB PED2-6R,Colonie,NY,12205,Albany,42.7198,-73.8207
358,185144,TOB CHARGERS EV STATION 2,Farmingville,NY,11738,Suffolk,40.8366,-73.0413
359,171342,SKYVIEW APARTME SKYVIEW ST2,Riverdale,NY,10471,Bronx,40.9011,-73.9053
360,162360,EVCS1 CANANDAIGUA,Canandaigua,NY,14424,Ontario,42.8689,-77.2846
361,180141,PANYNJ LGA WEST 4,East Elmhurst,NY,11371,Queens,40.7721,-73.8735
362,220204,Stop & Shop,North Bellmore,NY,11710,Nassau,40.6729,-73.5365
363,207358,TYLER TECH STATION1,Latham,NY,12110,Albany,42.7462,-73.763
364,162304,210 HANCOCK STATION 1,Ithaca,NY,14850,Tompkins,42.4406,-76.4966
365,174926,ATRIUM EVCHARGE PRC-EV2,Clifton Park,NY,12065,Saratoga,42.8499,-73.7851
366,169949,Simon-Simth Haven Mall,Lake Grove,NY,11755,Suffolk,40.8567,-73.1168
367,162344,SCHENECTADY ERIE BLVD,Schenectady,NY,12305,Schenectady,42.8161,-73.9398
368,226514,Van Bortel Chevrolet,Macedon,NY,14502,Wayne,43.0784,-77.3372
369,184036,Town Hall 1 Independence Hill,Farmingville,NY,11735,Nassau,40.7315,-73.4327
370,115251,PV Parking 40-07 73rd St - Tesla Destination,Woodside,NY,11377,Queens,40.745,-73.9069
371,227691,Strand Center for the Arts,Plattsburgh,NY,12901,Clinton,44.6927,-73.466
372,102333,New Roc Garage - Tesla Supercharger,New Rochelle,NY,10801,Westchester,40.9166,-73.7877
373,223219,Coveleigh Club,Rye,NY,10580,Westchester,40.9734,-73.6907
374,114982,Hampton Inn New Paltz - Tesla Destination,New Paltz,NY,12561,Ulster,41.7464,-74.1092
375,175059,CLARKSTOWN TOC 1 & 2,New City,NY,10956,Rockland,41.1472,-73.9962
376,155122,MONTEBELLO VILLAGE HALL 1,Suffern,NY,10901,Rockland,41.1177,-74.1241
377,167491,NORTZ & VIRKLER NORTZ & VIRKLER,Lowville,NY,13367,Lewis,43.7893,-75.4156
378,122787,SUNY NEW PALTZ STATION 1,New Paltz,NY,12561,Ulster,41.7464,-74.1092
379,235444,LKT SOUTH 1,Kingston,NY,12401,Ulster,41.9697,-74.0668
380,162400,RIVERHEAD RIVER 2 #2,Riverhead,NY,11901,Suffolk,40.9262,-72.652
381,235868,FSA STARBUCKS,Fredonia,NY,14063,Chautauqua,42.4333,-79.3339
382,180147,TIOGA HOTEL CASINO 2,Nichols,NY,13812,Tioga,42.0301,-76.354
383,223093,Budget Inn,Queensbury,NY,12804,Warren,43.329,-73.6818
384,202699,EVolveNY Geneva,Geneva,NY,14456,Ontario,42.8637,-76.9913
385,227079,Servomation Refreshments Inc,Canastota,NY,13032,Madison,43.0878,-75.7602
386,235343,FC1225 2144 S#2,Rochester,NY,14623,Monroe,43.0834,-77.6344
387,229084,6 Center Redemption,Wynantskills,NY,12198,Rensselaer,42.6878,-73.6383
388,115166,iPark 59-63 Allen Street - Tesla Destination,New York,NY,10002,New York,40.7152,-73.9877
389,181867,TCR TOWNE EV STATION 1,Albany,NY,12205,Albany,42.7198,-73.8207
390,168464,Exit 21 (Catskill),Catskill,NY,12451,Greene,42.3045,-73.9457
391,223301,14 Plaza Drive,Latham,NY,12110,Albany,42.7462,-73.763
392,225559,ATRIUM EVCHARGE EV10,Clifton Park,NY,12065,Saratoga,42.8499,-73.7851
393,188177,CITY AMSTERDAM P&RB EV 2,Amsterdam,NY,12010,Montgomery,42.9387,-74.1882
394,190072,The Cambium,Larchmont,NY,10538,Westchester,40.9351,-73.7571
395,67753,ScottTech,Binghamton,NY,13904,Broome,42.1171,-75.8653
396,181423,SUNY ADIRONDACK SUNY ACC 1.5,Queensbury,NY,12804,Warren,43.329,-73.6818
397,230979,45 Eastdale Ave,"Poughkeepsie, NY",NY,12603,Dutchess,41.6907,-73.8621
398,175722,MARKET 32 EV BALLTOWN EV3,Schenectady,NY,12304,Schenectady,42.7841,-73.9094
399,162456,STONY BROOK UNV LAKE DRIVE,Stony Brook,NY,11790,Suffolk,40.9068,-73.1277
400,230896,Hamilton College-Babbitt Pavilion,Clinton,NY,13323,Oneida,43.0586,-75.3808
401,223232,Bridge Street on the Hudson,Irvington,NY,10533,Westchester,41.0381,-73.8597
402,122698,SULLIVAN PARK CMOG,Corning,NY,14830,Steuben,42.1383,-77.0475
403,203017,OMG EV CHARGER EVCHARGER1,Cooperstown,NY,13326,Otsego,42.7005,-74.9243
404,123595,BURNS MGT SKIDMORE APTS,Saratoga Springs,NY,12866,Saratoga,43.0708,-73.7408
405,229476,CORNELL STATION5,Ithaca,NY,14850,Tompkins,42.4406,-76.4966
406,200490,Pinnacle North,Canandaigua,NY,14424,Ontario,42.8689,-77.2846
407,223511,MATTHEW IMPORT ABB STATION 1,Vestal,NY,13850,Broome,42.0771,-76.0118
408,114965,Best Western Adirondack Inn - Tesla Destination,Lake Placid,NY,12946,Essex,44.2796,-73.982
409,115099,Icon Parking 330 W 58th Street - Tesla Destination,New York,NY,10019,New York,40.7651,-73.9858
410,183662,CAP REP GARAGE 93 NORTH 1.3,Albany,NY,12207,Albany,42.6526,-73.7562
411,230188,Riverdale Fast Parking,Bronx,NY,10463,Bronx,40.8798,-73.9067
412,51537,Village Landing Public Parking Lot,Fairport,NY,14450,Monroe,43.0892,-77.436
413,223273,225 W 49th St,New York,NY,10019,New York,40.7651,-73.9858
414,185189,286WAE 49 SHERIDAN AVE,Albany,NY,12210,Albany,42.6568,-73.7605
415,217201,MONTANTE SOLAR STATION 4,Buffalo,NY,14209,Erie,42.913,-78.8656
416,164390,ERIE COUNTY EMERY,South Wales,NY,14139,Erie,42.7063,-78.5452
417,212979,STPETERHOSPITAL EV STATION #2,Albany,NY,12208,Albany,42.656,-73.7964
418,183180,VOB PARKWAY RD 1,Bronxville,NY,10708,Westchester,40.9391,-73.8353
419,162356,SHELTER ISLAND STATION 1,Shelter Island,NY,11964,Suffolk,41.064,-72.3366
420,196294,ESSEX FARMS EVSE4,Essex,NY,12936,Essex,44.2807,-73.3731
421,115185,iPark 650 Parking Corp - Tesla Destination,New York,NY,10065,New York,40.7651,-73.9638
422,164156,HAWTHORNE RIDGE STATION 2,East Greenbush,NY,12061,Rensselaer,42.5951,-73.6826
423,233045,Denny's - Tesla Supercharger,Fredonia,NY,14063,Chautauqua,42.4333,-79.3339
424,115219,Hyatt Place Long Island / East End - Tesla Destination,Riverhead,NY,11901,Suffolk,40.9262,-72.652
425,145532,SULLIVAN COUNTY SULLIVAN 2,Monticello,NY,12701,Sullivan,41.6516,-74.7007
426,171216,SSCCA SSCC - 02,Saratoga Springs,NY,12866,Saratoga,43.0708,-73.7408
427,200684,EVolveNY Saratoga,Saratoga,NY,12866,Saratoga,43.0708,-73.7408
428,150571,CenterPark 4172 Broadway - Tesla Destination,Washington Heights,NY,10033,New York,40.8496,-73.9356
429,122480,The Rose Motel - Tesla Destination,Durham,NY,12422,Greene,42.402,-74.1849
430,123107,Boondocks Restaurant,Lyons Falls,NY,13368,Lewis,43.6262,-75.3553
431,143224,HUDSON PRESERVE BLDG 6 #8,Watervliet,NY,12189,Albany,42.7298,-73.7123
432,114935,The FLX Wienery - Tesla Destination,Dundee,NY,14837,Yates,42.5053,-77.0028
433,223247,Jeff Blatnik Park,Niskayuna,NY,12309,Schenectady,42.8091,-73.8693
434,230953,Gateway to Mount Beacon,Beacon,NY,12508,Dutchess,41.5097,-73.9634
435,182224,SUNY BUFFALO PARKER 7,Buffalo,NY,14214,Erie,42.9414,-78.8374
436,163946,Amagansett Village Parking Lot,Amagansett,NY,11954,Suffolk,41.0459,-71.944
437,162377,MAIN 2ND FLOOR 1 GW,Waterloo,NY,13165,Seneca,42.9045,-76.8755
438,194845,"Walgreens - Brooklyn, NY #15097",Brooklyn,NY,11215,Kings,40.6669,-73.9828
439,174328,BURNS MGT THE SPRINGS #3,Saratoga Springs,NY,12866,Saratoga,43.0708,-73.7408
440,169077,Rochester Institute of Technology - Tesla Destination,Rochester,NY,14623,Monroe,43.0834,-77.6344
441,221382,BUL AUTO ALB STATION 2,Albany,NY,12205,Albany,42.7198,-73.8207
442,230810,Moreau Recreational Park,Moreau,NY,12828,Washington,43.2653,-73.5822
443,216493,PELHAM VILLAGE LOT 07,Village of Pelham,NY,10803,Westchester,40.9045,-73.8073
444,182258,FLEETWOODGARAGE STATION TWO,Mount Vernon,NY,10552,Westchester,40.9231,-73.8299
445,226846,35 Red Cross Pl,Brooklyn,NY,11201,Kings,40.694,-73.9903
446,150596,300 W 135 St - Little Man Parking - Tesla Destination,New York,NY,10030,New York,40.8183,-73.9426
447,114949,Hudson Valley Rail Trail Depot - Tesla Destination,Highland,NY,12528,Ulster,41.7167,-73.9928
448,162250,NATIONAL GRID BISSEL HALL,Buffalo,NY,14228,Erie,43.0408,-78.7812
449,189255,UEM CAR CHARGER CHARGER 2,Glens Falls,NY,12801,Warren,43.3115,-73.6448
450,213860,Audi New Rochelle,New Rochelle,NY,10802,Westchester,40.9115,-73.7824
451,193185,BURNS MGT EMPIRE RUN 1,Saratoga Springs,NY,12866,Saratoga,43.0708,-73.7408
452,74632,Vision Nissan,Canandaigua,NY,14424,Ontario,42.8689,-77.2846
453,169201,"The Standard, East Village - Tesla Destination",New York,NY,10034,New York,40.8662,-73.9221
454,155245,MUNICIPAL EVSE MURRAY STREET,Glens Falls,NY,12801,Warren,43.3115,-73.6448
455,162170,ULSTER COUNTY HEALTH DEPT 3,Kingston,NY,12401,Ulster,41.9697,-74.0668
456,229395,Town Hall of Macedon,Macedon,NY,14502,Wayne,43.0784,-77.3372
457,150722,Manhattan Parking 110 LLC - Tesla Destination,New York,NY,10025,New York,40.7975,-73.9683
458,223411,FETZNER STATION 6,Rochester,NY,14615,Monroe,43.2058,-77.6521
459,221901,FC1225 UNION ST CT4K 1,Rochester,NY,14607,Monroe,43.1501,-77.589
460,204691,33-10 Queens Blvd,Queens,NY,11101,Queens,40.7446,-73.9345
461,115137,Quikpark 43-08 Crescent Street - Tesla Destination,New York,NY,11101,Queens,40.7446,-73.9345
462,115053,GGMC Parking Seven Eleven (Located at 217 E 44th St) - Tesla Destination,New York,NY,10017,New York,40.7517,-73.9707
463,65275,Longview Parking Garage,White Plains,NY,10601,Westchester,41.033,-73.7652
464,223268,44 W 62nd St.,New York,NY,10023,New York,40.7764,-73.9827
465,173947,RPI 1 E DORM N LOT S1,Troy,NY,12180,Rensselaer,42.7287,-73.6683
466,207796,1 WATERLINE STATION#5,New York,NY,10069,New York,40.778,-73.9884
467,185627,Mather Hospital,Port Jefferson,NY,11777,Suffolk,40.9457,-73.0611
468,143441,BA #1 40BRITISH AMER,Latham,NY,12110,Albany,42.7462,-73.763
469,223256,435 E. 55th St.,New York,NY,10022,New York,40.7571,-73.9657
470,150489,The American Hotel-Sag Harbor - Tesla Destination,Sag Harbor,NY,11963,Suffolk,40.982,-72.3067
471,115155,Standard Parking 800 6th Ave - Tesla Destination,New York,NY,10001,New York,40.7484,-73.9967
472,230835,SPOT cowork,Henrietta,NY,14623,Monroe,43.0834,-77.6344
473,181934,CITY AMSTERDAM BRIDGE ST EV 3,Amsterdam,NY,12010,Montgomery,42.9387,-74.1882
474,223278,11 East 86th Street,New York,NY,10028,New York,40.7763,-73.9529
475,115238,"Mirbeau Inn & Spa, Skaneateles - Tesla Destination",Skaneateles,NY,13152,Onondaga,42.9258,-76.4052
476,147095,Niagara Power Vista,Lewiston,NY,14092,Niagara,43.1722,-79.0215
477,184631,SLSDC - Administration Building,Massena,NY,13662,St. Lawrence,44.9322,-74.8845
478,165630,BETHLEHEM EV FLEET #1,Delmar,NY,12054,Albany,42.6158,-73.8373
479,226502,Holiday Inn Express Rochester,Rochester,NY,14623,Monroe,43.0834,-77.6344
480,194158,FAYETTVL LIBRAY ORCHARD 2,Fayetteville,NY,13066,Onondaga,43.0268,-76.0145
481,206918,BORO PARK BORO CHARGE 2,Borough Park,NY,11219,Kings,40.6336,-73.996
482,157947,Town of Elmira,Elmira,NY,14905,Chemung,42.0869,-76.8397
483,171230,SYLVAN BEACH SPENCER AVE,Blossvale,NY,13308,Oneida,43.2303,-75.6873
484,70452,Fuccillo Nissan - Latham,Latham,NY,12110,Albany,42.7462,-73.763
485,162191,SUNY NEW PALTZ ELTING GYM 1,New Paltz,NY,12561,Ulster,41.7464,-74.1092
486,162335,BEDFORDEV METRO NORTH RR1,Bedford Hills,NY,10507,Westchester,41.2344,-73.6915
487,190454,KEELER STATION 02,Latham,NY,12110,Albany,42.7462,-73.763
488,221142,CANDLE PARK-NO1,Vestal,NY,13850,Broome,42.0771,-76.0118
489,164150,SAVARINO COMPAN 500 SENECA 2,Buffalo,NY,14204,Erie,42.884,-78.8597
490,180142,MUNICIPAL EVSE PARK STREET 2,Glens Falls,NY,12801,Warren,43.3115,-73.6448
491,115014,Icon Parking 14-26 William Street - Tesla Destination,New York,NY,10004,New York,40.7143,-74.006
492,149087,ICE RINK LIBRARY,Saugerties,NY,12477,Ulster,42.0738,-73.9797
493,184440,BNL NSLS-II LOB-4,Upton,NY,11961,Suffolk,40.9018,-72.8881
494,223836,G & M REALTY 2 STATION 5,LIC,NY,11101,Queens,40.7446,-73.9345
495,169945,TCR TOWNE EV STATION 3,Albany,NY,12205,Albany,42.7198,-73.8207
496,174730,HARMONY MILLS 1 FALLSVIEW 1.5,Cohoes,NY,12047,Albany,42.7754,-73.7124
497,152283,MARKET 32 EV MARKET32 EV CP,Clifton Park,NY,12065,Saratoga,42.8499,-73.7851
498,44360,Nissan of New Rochelle,New Rochelle,NY,10801,Westchester,40.9166,-73.7877
499,205276,EVolveNY Bath,Bath,NY,14810,Steuben,42.3575,-77.3028
500,115204,Fairfield Inn & Suites by Marriott Olean - Tesla Destination,Olean,NY,14760,Cattaraugus,42.0821,-78.426
501,164835,THOMAS COLE STATION #1,Catskill,NY,12414,Greene,42.2276,-73.8985
502,174190,2600 6TH AVE CHARGEPOINT 1,Troy,NY,12180,Rensselaer,42.7287,-73.6683
503,154369,1350 EGGERT RD EGGERT (1),Buffalo,NY,14226,Erie,42.9744,-78.7949
504,235768,STONELEIGH CHARGEPOINT1,Bronxville,NY,10708,Westchester,40.9391,-73.8353
505,104734,Buffalo State - Cleveland Hall,Buffalo,NY,14222,Erie,42.9164,-78.8763
506,123145,Nassau Community College,Garden City,NY,11530,Nassau,40.7245,-73.6487
507,180891,FOODBANK LATHAM PARKING FOUR,Latham,NY,12110,Albany,42.7462,-73.763
508,166798,PICOTTE 12 CORPORATE 4,Albany,NY,12211,Albany,42.713,-73.7739
509,149477,South Shore Nissan,Amityville,NY,11701,Suffolk,40.6842,-73.4171
511,115009,Quik Park Garden Lots LLC - Tesla Destination,New York,NY,10001,New York,40.7484,-73.9967
512,162136,NATIONAL GRID BUFFALO STATE,Buffalo,NY,14222,Erie,42.9164,-78.8763
513,223125,Greymoor Way - Building 9,Baldwinsville,NY,13027,Onondaga,43.162,-76.3237
514,227092,EJ Noble Building Medical Laboratory,Canton,NY,13617,St. Lawrence,44.5924,-75.1628
515,114915,Quik Park 81 Fleet Place LLC - Tesla Destination,Brooklyn,NY,11201,Kings,40.694,-73.9903
516,186132,CNDL - E. SYR CANDLEWOOD 1.2,East Syracuse,NY,13057,Onondaga,43.0734,-76.0558
517,64706,Cliff's Elbow Room,Jamesport,NY,11947,Suffolk,40.9495,-72.5815
518,174182,TATABROOKFIELD #7,New York,NY,10044,New York,40.7618,-73.9505
519,229069,Town of Charleston Town Hall Parking Lot,Sprakers,NY,12166,Montgomery,42.8484,-74.4536
520,218444,COMMON-ROOTS COMMON ROOTS,South Glens Falls,NY,12803,Saratoga,43.2836,-73.6294
521,223296,SUNY Sullivan,Loch Sheldrake,NY,12759,Sullivan,41.7789,-74.6614
522,193883,MUNI LOT STATION 1,Lake Placid,NY,12946,Essex,44.2796,-73.982
523,189535,Tehan's 4581,New Hartford,NY,13413,Oneida,43.0654,-75.2906
524,175311,ATRIUM EVCHARGE PARKPLAZA EV3,Clifton park,NY,12065,Saratoga,42.8499,-73.7851
525,114878,AAA Albany - Tesla Destination,Albany,NY,12209,Albany,42.6417,-73.7854
526,181718,ROSEWOOD PLAZA STATION 3,Albany,NY,12205,Albany,42.7198,-73.8207
527,115041,Enterprise Parking 200 E 69th St - Tesla Destination,New York,NY,10065,New York,40.7651,-73.9638
528,202125,WATERVLIET PARK 2,Watervliet,NY,12189,Albany,42.7298,-73.7123
529,182111,OLYMPIC SPORTS  SPORTS 8,Lake Placid,NY,12946,Essex,44.2796,-73.982
530,170242,ERIE COUNTY STATION TWO,Buffalo,NY,14221,Erie,42.9685,-78.7492
531,44176,Country Club Imports,Oneonta,NY,13820,Otsego,42.4625,-75.0491
532,228028,Highridge Plaza,Yonkers,NY,10710,Westchester,40.9656,-73.8434
533,114906,Park Kwik LLC 50 Washington St. - Tesla Destination,Brooklyn,NY,11201,Kings,40.694,-73.9903
534,165336,WEST HARRISON STATION ONE,Harrison,NY,10604,Westchester,41.0592,-73.7395
535,187658,NYC FLEET DPRWFMARNA_1_L3,Corona,NY,11368,Queens,40.7453,-73.8611
536,233316,MATTHEW IMPORT PREP AREA,Vestal,NY,13850,Broome,42.0771,-76.0118
537,44325,Rockland Nissan,Blauvelt,NY,10913,Rockland,41.0626,-73.9629
538,183724,SRYMCASSB WILTON 1.4,Saratoga Springs,NY,12866,Saratoga,43.0708,-73.7408
539,181837,854ELLICOTT 589 ELLICOTT 6,Buffalo,NY,14203,Erie,42.8939,-78.8681
540,226497,KI-PO Chevrolet,Ransomville,NY,14131,Niagara,43.2286,-78.8982
541,206305,KIA ELMIRA CT-4020-1,Big Flats,NY,14903,Chemung,42.1198,-76.8877
542,220206,Stop & Shop,Oyster Bay,NY,11771,Nassau,40.866,-73.5272
543,157970,The Lodge at Grist Iron Brewing Co.,Burdett,NY,14818,Schuyler,42.4394,-76.8292
544,102338,125 Victory Hwy - Tesla Supercharger,Painted Post,NY,14870,Steuben,42.171,-77.1194
545,162308,5TH AVE 5TH AVE TROY,Troy,NY,12180,Rensselaer,42.7287,-73.6683
546,182982,LARKIN726RRAMPP EV ONLY 2,Buffalo,NY,14210,Erie,42.8614,-78.8205
547,225918,79 South Ferry Road (US-B99-2XN-1),Shelter Island,NY,11964,Suffolk,41.064,-72.3366
548,213196,SJC SJC,Patchogue,NY,11772,Suffolk,40.7609,-72.9871
549,189512,Ellsworth Common Prime Properties,Malta,NY,12020,Saratoga,43.005,-73.8486
550,194319,NORTHEAST IS STATION 2,Albany,NY,12205,Albany,42.7198,-73.8207
551,196361,PHILLIPSHDWR PHILLIPS STA1,Altamont,NY,12009,Albany,42.7063,-74.0193
552,86715,City of Binghamton - Recreation Park,Binghamton,NY,13901,Broome,42.1463,-75.8865
553,170122,NYC FLEET DPR_ICAHN_1_L3,New York,NY,10035,New York,40.8011,-73.9371
554,227684,Plattsburgh City Beach,Plattsburgh,NY,12901,Clinton,44.6927,-73.466
555,197206,WHITE PLAINS EVSE1,White Plains,NY,10605,Westchester,41.0141,-73.7552
556,167890,Dalewood Shopping Center,Hartsdale,NY,10530,Westchester,41.0197,-73.8074
557,115070,Quik Park 40 Riverside Blvd - Tesla Destination,New York,NY,10282,New York,40.7166,-74.0146
558,150578,LAZ Parking 133-59 Roosevelt Ave - Tesla Destination,Flushing,NY,11354,Queens,40.7667,-73.8241
559,223106,SUNY Schenectady - Main Lot Faculty,Schenectady,NY,12305,Schenectady,42.8161,-73.9398
560,187159,Village of Canastota,Canastota,NY,13032,Madison,43.0878,-75.7602
561,115087,Parkit 301 E 64th - Tesla Destination,New York,NY,10065,New York,40.7651,-73.9638
562,65303,Village of Freeport Municipal,Freeport,NY,11520,Nassau,40.6536,-73.5866
563,169303,The Mill at Water Mill - Tesla Supercharger,Water Mill,NY,11976,Suffolk,40.9209,-72.3491
564,162462,HABBERSTAD BMW BAY SHORE 01,Bay Shore,NY,11706,Suffolk,40.7051,-73.243
565,123117,Walkway Over the Hudson,Poughkeepsie,NY,12601,Dutchess,41.7035,-73.9117
566,175727,MARKET 32 EV BARNEY RD EV3,Clifton Park,NY,12065,Saratoga,42.8499,-73.7851
567,225126,Travelers N,Utica,NY,13502,Oneida,43.1067,-75.2314
568,202632,Boiler Sidewalk,Buffalo,NY,14214,Erie,42.9414,-78.8374
569,180153,RIT EV CHARGING ADMIN LOT,Rochester,NY,14623,Monroe,43.0834,-77.6344
570,189538,The Outlets of Lake George,Lake George,NY,12845,Warren,43.4167,-73.6975
571,235439,LKT WEST 3,Kingston,NY,12401,Ulster,41.9697,-74.0668
572,124144,Astor Place,New York,NY,10003,New York,40.7313,-73.9892
573,191763,518 EYES LLC STATION 1,Schenectady,NY,12302,Schenectady,42.88,-73.9913
574,230775,Jones Beach Field 5,Wantagh,NY,11758,Nassau,40.6682,-73.4588
575,182107,OLYMPIC SPORTS  SPORTS 2,Lake Placid,NY,12946,Essex,44.2796,-73.982
576,169009,Park Kwik - 211 Atlantic - Tesla Destination,Brooklyn,NY,11201,Kings,40.694,-73.9903
577,191389,COLLEGIAN HOTEL COLLEGIAN 2:3,Syracuse,NY,13210,Onondaga,43.0354,-76.1282
578,115189,"The Standard, High Line - Tesla Destination",New York,NY,10014,New York,40.7339,-74.0054
579,165400,ADAMS STATION 401 ASTOR CT,Delmar,NY,12054,Albany,42.6158,-73.8373
580,228500,Woodbury Common Premium Outlets,Central Valley,NY,10917,Orange,41.3268,-74.122
581,115036,Glenwood Grand Tier Parking - Tesla Destination,New York,NY,10023,New York,40.7764,-73.9827
582,185306,SAMARITAN TROY FLR 1 EV 2,Troy,NY,12180,Rensselaer,42.7287,-73.6683
583,225114,Meadowbrook Apartments E,Slingerlands,NY,12159,Albany,42.6485,-73.8711
584,154908,Ultralife Corporation,"Newark,",NY,14513,Wayne,43.0519,-77.0946
585,162127,BURNS MGT SGA 2,Saratoga Springs,NY,12866,Saratoga,43.0708,-73.7408
586,226579,ANTHEM GA STATION-2,Latham,NY,12110,Albany,42.7462,-73.763
587,175104,PRIMA LOFTS LL ALB LOFTS 1.3,Menands,NY,12204,Albany,42.6847,-73.7354
588,114911,GGMC Parking 66 Rockwell Pl Garage - Tesla Destination,Brooklyn,NY,11217,Kings,40.6816,-73.9798
589,213960,CMH STATION 3,Hudson,NY,12534,Columbia,42.247,-73.7552
590,114969,iPark 43-25 Hunter Street - Tesla Destination,Long Island City,NY,11101,Queens,40.7446,-73.9345
591,199201,"Quadrangle 694 Motor Pkwy (Hauppauge, NY)",Hauppauge,NY,11788,Suffolk,40.8231,-73.1958
592,233100,Medina Wildwood Lake KOA,Medina,NY,14103,Orleans,43.2184,-78.3874
593,223140,The Summit,Troy,NY,12180,Rensselaer,42.7287,-73.6683
594,168176,RTS STJFISHER 1,Pittsford,NY,14618,Monroe,43.1122,-77.5618
595,213087,U OF R HOSP SEC D BLUE,Rochester,NY,14620,Monroe,43.1317,-77.6062
596,197199,ESF STATION 7,Syracuse,NY,13210,Onondaga,43.0354,-76.1282
597,115223,Fairfield Inn by Marriott Rochester South - Tesla Destination,Rochester,NY,14623,Monroe,43.0834,-77.6344
598,164421,BEVERWYCK STATION 4,Slingerlands,NY,12159,Albany,42.6485,-73.8711
599,85949,Catamount Ski,Hillsdale,NY,12529,Columbia,42.1868,-73.5483
600,115246,Hilton Garden Inn Watertown - Tesla Destination,Watertown,NY,13601,Jefferson,43.9743,-75.9122
601,102329,Stewartâ€™s Shop - Tesla Supercharger,Clinton Corners,NY,12514,Dutchess,41.8693,-73.7659
602,226525,Ferrario Ford Lincoln,Elmira,NY,14903,Chemung,42.1198,-76.8877
603,180112,854ELLICOTT 854 ELLICOTT 5,Buffalo,NY,14203,Erie,42.8939,-78.8681
604,115080,iPark 3 E 67th Street - Tesla Destination,New York,NY,10065,New York,40.7651,-73.9638
605,162175,JATC LU840 JATC LU840,Geneva,NY,14456,Ontario,42.8637,-76.9913
606,145333,TOM MEMORIAL PARK,Larchmont,NY,10538,Westchester,40.9351,-73.7571
607,183178,COLL BROCKPORT FINEARTS LOT G1,Brockport,NY,14420,Monroe,43.2128,-77.9368
608,183227,TSS ALBANY STATION 9 & 10,Schenectady,NY,12309,Schenectady,42.8091,-73.8693
609,192998,MB OF WF FRONT PARKING,Wappingers Falls,NY,12590,Dutchess,41.595,-73.8876
610,94856,Taste NY Market at Todd Hill,Poughkeepsie,NY,12540,Dutchess,41.6615,-73.745
611,182226,SUNY BUFFALO PARKER 3,Buffalo,NY,14214,Erie,42.9414,-78.8374
612,227088,Home2 Suites by Hilton Utica,Utica,NY,13502,Oneida,43.1067,-75.2314
613,188106,OSSINING OPS CENTER,Ossining,NY,10562,Westchester,41.1673,-73.8538
614,115109,GGMC Parking 350 W 43rd Street Garage - Tesla Destination,New York,NY,10036,New York,40.7597,-73.9918
615,162196,NATIONAL GRID KOHLS SARATOGA,Saratoga Springs,NY,12866,Saratoga,43.0708,-73.7408
616,150611,The Kartrite Resort & Indoor Waterpark - Tesla Destination,Monticello,NY,12701,Sullivan,41.6516,-74.7007
617,201775,CHRISTCHURCH STATION 1,Red Hook,NY,12571,Dutchess,42.0064,-73.8546
618,166207,Walmart 2586 Cheektowaga,Cheektowaga,NY,14225,Erie,42.9255,-78.7481
619,154441,SPOT cowork Rochester - Tesla Destination,Rochester,NY,14623,Monroe,43.0834,-77.6344
620,114939,MPG The Shops at Skyview - Tesla Destination,Flushing,NY,11354,Queens,40.7667,-73.8241
621,115170,Quik Park 600 West 42nd Street (Silver Towers) LLC - Tesla Destination,New York,NY,10036,New York,40.7597,-73.9918
622,198012,Village of Hamilton,Hamilton,NY,13346,Madison,42.8231,-75.5434
623,180105,VILLAGEHALL VILLAGE CENTER,Rhinebeck,NY,12572,Dutchess,41.9272,-73.8888
624,220319,BORO PARK BORO CHARGE 7,Borough Park,NY,11219,Kings,40.6336,-73.996
625,189899,South Wedge Park LLC,Rochester,NY,14620,Monroe,43.1317,-77.6062
626,187558,CENTROTHERM CENTRO F3,Albany,NY,12202,Albany,42.6413,-73.7641
627,221196,THE HYDE STATION 2,Glens Falls,NY,12801,Warren,43.3115,-73.6448
628,143244,HUDSON PRESERVE BLDG 19 #12,Watervliet,NY,12189,Albany,42.7298,-73.7123
629,44338,Maguire Nissan,Ithaca,NY,14850,Tompkins,42.4406,-76.4966
630,230818,Town of Andes,Andes,NY,13731,Delaware,42.1569,-74.7887
631,174451,RRH ST MARYS 3,Rochester,NY,14611,Monroe,43.1484,-77.6394
632,114945,The Garrison and Highlands Country Club - Tesla Destination,Garrison,NY,10524,Putnam,41.3621,-73.92
633,202931,134 N 4th St,Brooklyn,NY,11249,Kings,40.6451,-73.945
634,152276,MARKET 32 EV MARKET GLENMONT,Glenmont,NY,12077,Albany,42.5971,-73.7959
635,224508,QT STATION 3,Woodside,NY,11377,Queens,40.745,-73.9069
636,233085,Oswego Swimming Pool,Oswego,NY,13126,Oswego,43.4394,-76.4613
637,162241,NATIONAL GRID SUNY NANOTECH,Albany,NY,12203,Albany,42.7003,-73.8575
638,162393,CT ROCHESTER CTR GARAGE,Rochester,NY,14620,Monroe,43.1317,-77.6062
639,191246,799 SENECA STATION 8,Buffalo,NY,14210,Erie,42.8614,-78.8205
640,155079,2835 Monroe Holdings LLC,Rochester,NY,14618,Monroe,43.1122,-77.5618
641,143566,SUNFLOWER MARKET,Woodstock,NY,12498,Ulster,42.0348,-74.112
642,189524,Main Square,Delmar,NY,12054,Albany,42.6158,-73.8373
643,150520,Icon Parking 245 E 19th St. - Tesla Destination,New York,NY,10010,New York,40.7375,-73.9813
644,115075,iPark 455 Central Park West - Tesla Destination,New York,NY,10025,New York,40.7975,-73.9683
645,115200,The Alpine Lodge - Tesla Destination,North Creek,NY,12853,Warren,43.6978,-73.986
646,217327,ALBANY COUNTY STATION 1,Loudonville,NY,12211,Albany,42.713,-73.7739
647,153091,BA #1 19 BA 2,Latham,NY,12110,Albany,42.7462,-73.763
648,123135,Allan H. Treman State Park,Ithaca,NY,14850,Tompkins,42.4406,-76.4966
649,227761,TPWC  TPWC 1,Altamont,NY,12009,Albany,42.7063,-74.0193
650,64141,Ramp Ford,Port Jefferson Station,NY,11776,Suffolk,40.9136,-73.0464
651,182817,MIDDLE COUNTRY PATRON PARKING,Centereach,NY,11720,Suffolk,40.8705,-73.0822
652,190893,TAYLOR HOUSE LOT,Aurora,NY,13026,Cayuga,42.7472,-76.6775
653,162224,NATIONAL GRID KOHLS AMSTERDAM,Amsterdam,NY,12010,Montgomery,42.9387,-74.1882
654,114990,Rapidpark 600 Columbus Ave - Tesla Destination,New York,NY,10024,New York,40.7864,-73.9764
655,121487,BURNS MGT CARRIAGE 1,Saratoga Springs,NY,12866,Saratoga,43.0708,-73.7408
656,205066,RIVERWATCH EV1 STATION1,Yonkers,NY,10701,Westchester,40.9461,-73.8669
657,186044,159 WOLF OFFBLD 159 WOLF MIDDLE,Albany,NY,12205,Albany,42.7198,-73.8207
658,230456,TUV Rheinland,Webster,NY,14580,Monroe,43.2196,-77.4616
659,165558,CCE TOMPKINS STATION ONE,Ithaca,NY,14850,Tompkins,42.4406,-76.4966
660,104727,Main Place Parking Garage,Buffalo,NY,14202,Erie,42.887,-78.8779
661,223108,SUNY Schenectady - School of Music,Schenectady,NY,12305,Schenectady,42.8161,-73.9398
662,225988,47 South Ferry Road (US-YXS-75A-2),Shelter Island,NY,11964,Suffolk,41.064,-72.3366
663,235071,BATAVIA TOYOTA OUTDOOR,Batavia,NY,14020,Genesee,43.0003,-78.1929
664,201295,NAPA Auto Parts,Spencerport,NY,14559,Monroe,43.1895,-77.8043
665,226506,ACES Renewable Rochester,Honeoye Falls,NY,14472,Monroe,42.9695,-77.5781
666,162290,HOLT1 HOLT,Ithaca,NY,14850,Tompkins,42.4406,-76.4966
667,44184,Nissan City - Port Chester,Port Chester,NY,10573,Westchester,41.0222,-73.6798
668,115234,Saratoga Auto Museum - Tesla Destination,Saratoga Springs,NY,12866,Saratoga,43.0708,-73.7408
669,184638,BNL Eastside of Bldg 1008E,Upton,NY,11961,Suffolk,40.9018,-72.8881
670,149318,South Meadow Marketplace - Tesla Supercharger,Ithaca,NY,14850,Tompkins,42.4406,-76.4966
671,122469,ImPark Underhill Garage - Tesla Destination,Brooklyn,NY,11238,Kings,40.679,-73.9644
672,194978,SIENA COLLEGE LOT U EVSE 2,Albany,NY,12211,Albany,42.713,-73.7739
673,123064,Vassar,Poughkeepsie,NY,12604,Dutchess,41.7599,-73.7437
674,87914,Long Island Welcome Center,Dix Hills,NY,11746,Suffolk,40.8143,-73.3634
675,168984,New York Hospital Queens - Tesla Destination,Flushing,NY,11355,Queens,40.7536,-73.8226
676,215068,NORTHTOWN CENTE STATION 1,Buffalo,NY,14221,Erie,42.9685,-78.7492
677,114882,Peppermint's Restaurant - Tesla Destination,Avon,NY,14414,Livingston,42.903,-77.7274
678,151794,Broadway Commons,Hicksville,NY,11801,Nassau,40.7623,-73.523
679,148044,Elm Ave,Niskayuna,NY,12309,Schenectady,42.8091,-73.8693
680,184034,Tringali's,Buffalo,NY,14216,Erie,42.9499,-78.8599
681,218500,ATHENS CHARGER 1,Athens,NY,12015,Greene,42.2736,-73.8152
682,181903,MOHAWK HARBOR01 STATION #3,Schenectady,NY,12308,Schenectady,42.8179,-73.9206
683,156045,Nott/Lennox Lot,Schenectady,NY,12308,Schenectady,42.8179,-73.9206
684,229203,CHARGE POINT #1 ABB STATION 1,Yorkville,NY,13495,Oneida,43.1116,-75.2756
685,115046,Icon Parking 203 E 61 Street - Tesla Destination,New York,NY,10021,New York,40.7685,-73.9588
686,162149,NEW STATION 01,Huntington,NY,11743,Suffolk,40.8676,-73.4102
687,61760,Broccolo Tree and Lawncare Garden Center,Fairport,NY,14450,Monroe,43.0892,-77.436
688,174886,HYATT PLACE HOTEL AMHERST 2,Amherst,NY,14226,Erie,42.9744,-78.7949
689,211840,FURNACE POINT FPEV2,Westport,NY,12993,Essex,44.205,-73.4702
690,123262,Westchester Medical Center,Valhalla,NY,10595,Westchester,41.0856,-73.7776
691,205256,MONTY'S EVSE EVSE3,INGRAHAM,NY,12992,Clinton,44.797,-73.5112
692,227776,TPWC  TPWC 12,Altamont,NY,12009,Albany,42.7063,-74.0193
693,166728,Staten Island Mall,Staten Island,NY,10314,Richmond,40.6039,-74.1472
694,224228,GENESEO E PARK LEFT,Geneseo,NY,14454,Livingston,42.7938,-77.7996
695,233092,575 1st Ave,New York,NY,10016,New York,40.7443,-73.9781
696,114989,Icon Parking 100 Riverside Blvd. - Tesla Destination,New York,NY,10024,New York,40.7864,-73.9764
697,171552,ADELPHI UNIV STATION 02,Garden City,NY,11530,Nassau,40.7245,-73.6487
698,193394,BURNS MGT BROOM SHOP 4,Latham,NY,12110,Albany,42.7462,-73.763
699,44350,Nissan - Huntington,Huntington Station,NY,11746,Suffolk,40.8143,-73.3634
700,165110,SDH STATION EV STATION 1,Buffalo,NY,14226,Erie,42.9744,-78.7949
701,117604,Finger Lakes Welcome Center,Geneva,NY,14456,Ontario,42.8637,-76.9913
702,189504,621 Columbia St,Cohoes,NY,12047,Albany,42.7754,-73.7124
703,154053,PEPSICO INC STATION 2,Valhalla,NY,10595,Westchester,41.0856,-73.7776
704,225479,ARCHER GREEN MI STATION 4,Jamaica,NY,11433,Queens,40.6969,-73.7877
705,197538,Price Chopper,Cortland,NY,13045,Cortland,42.5952,-76.1857
706,115004,ABM Parking 750 Lexington Ave LLC - Tesla Destination,New York,NY,10022,New York,40.7571,-73.9657
707,164738,Central Parking - 146 W 57th St,New York,NY,10019,New York,40.7651,-73.9858
708,153434,Brookfield Place - Tesla Supercharger,New York City,NY,10080,New York,40.7143,-74.006
709,225163,FIVE-STAR BANK NORTH CHARGER,Buffalo,NY,14221,Erie,42.9685,-78.7492
710,201668,Parkway Plaza - Tesla Supercharger,Carle Place,NY,11514,Nassau,40.7512,-73.6119
711,223129,Greymoor Way - Building 14,Baldwinsville,NY,13027,Onondaga,43.162,-76.3237
712,168525,STATION 4TH FL MOTORGATE #2,New York,NY,10044,New York,40.7618,-73.9505
713,191761,NEFJ EV 1,Albany,NY,12203,Albany,42.7003,-73.8575
714,223418,VOEASTROCHESTER EYER BUILDING,East Rochester,NY,14445,Monroe,43.1128,-77.4906
715,98431,Tony Mangino Mitsubishi,Clifton Park,NY,12065,Saratoga,42.8499,-73.7851
716,167180,HAWKINS P2 ST 1 SUNYPLATTSBURGH,Plattsburgh,NY,12901,Clinton,44.6927,-73.466
717,186633,VANKAY PUBLIC STATION 2,Ballston Spa,NY,12020,Saratoga,43.005,-73.8486
718,115021,Standard Parking 151 W 17th Street - Tesla Destination,New York,NY,10011,New York,40.7402,-73.9996
719,162266,U OF R GOERGEN CENTER,Rochester,NY,14627,Monroe,43.1275,-77.6277
720,225381,MILTON NY STATION 4,Ballston Spa,NY,12020,Saratoga,43.005,-73.8486
721,227762,TPWC  TPWC 2,Altamont,NY,12009,Albany,42.7063,-74.0193
722,174681,WHEATLAND-CHILI HIGH SCH 2,Scottsville,NY,14546,Monroe,43.0246,-77.7743
723,158512,TOM HOMMOCKS RINK,Larchmont,NY,10538,Westchester,40.9351,-73.7571
724,180133,TOWN OF BABYLON TOWN ANNEX 1,North Babylon,NY,11703,Suffolk,40.7321,-73.3236
725,162327,ULYSSES TOWN ULYSSES,Trumansburg,NY,14886,Tompkins,42.521,-76.6681
726,102342,Aviation Mall - Tesla Supercharger,Queensbury,NY,12804,Warren,43.329,-73.6818
727,146985,CFL-1 LIBRARY RT 23B,Claverack-Red Mills,NY,12513,Columbia,42.2251,-73.7346
728,235731,MHM WALL STREET 4,Albany,NY,12205,Albany,42.7198,-73.8207
729,206835,MPGARDENS STATION 1,East Meadow,NY,11554,Nassau,40.7149,-73.5561
730,193844,SIENA COLLEGE FOY HALL EVSE1,Latham,NY,12110,Albany,42.7462,-73.763
731,171409,MINNEWASKA EV 2,Kerhonkson,NY,12446,Ulster,41.7939,-74.3035
732,115102,Standard Parking Gateway Plaza Garage - Tesla Destination,New York,NY,10280,New York,40.7105,-74.0163
733,115122,Champion Parking 113 LLC - Tesla Destination,New York,NY,10025,New York,40.7975,-73.9683
734,114902,Quik Park 365 Management LLC - Tesla Destination,Brooklyn,NY,11231,Kings,40.6794,-74.0014
735,44317,Destination Nissan,Albany,NY,12206,Albany,42.6683,-73.7744
736,223283,55 East End Ave,New York,NY,10028,New York,40.7763,-73.9529
737,195772,COLGATE SPEAR HOUSE LOT,Hamilton,NY,13346,Madison,42.8231,-75.5434
738,180130,PPC STATION 1,Bridgeport,NY,13030,Madison,43.159,-75.97
739,234634,MEM. PLZ STATION 1,Pleasantville,NY,10570,Westchester,41.135,-73.7845
740,155355,Pearl River Train Station,Pearl River,NY,10965,Rockland,41.0629,-74.0159
741,81608,Jim Barnard Chevrolet,Churchville,NY,14428,Monroe,43.0749,-77.835
742,222456,CANDLE CANDLEWOOD #2,Vestal,NY,13850,Broome,42.0771,-76.0118
743,227805,DEPAULA MAZDA SERVICE BAY,Colonie,NY,12205,Albany,42.7198,-73.8207
744,226538,Spuds Spawz Dog Grooming,Macedon,NY,14502,Wayne,43.0784,-77.3372
745,188095,UMGI EV1,LIC,NY,11101,Queens,40.7446,-73.9345
746,174098,SUNY NEW PALTZ STATION 3,New Paltz,NY,12561,Ulster,41.7464,-74.1092
747,223708,TRADITION CBG TRADITION CHVY1,Newark,NY,14513,Wayne,43.0519,-77.0946
748,183226,TSS ALBANY STATION 5 & 6,Schenectady,NY,12309,Schenectady,42.8091,-73.8693
749,227688,Downtown Plattsburgh Public Parking,Plattsburgh,NY,12901,Clinton,44.6927,-73.466
750,114896,Standard Parking Pierepoint Plaza - Tesla Destination,Brooklyn,NY,11201,Kings,40.694,-73.9903
751,175501,MUNICIPAL EVSE HOCKEY ICE RINK,Glens Falls,NY,12801,Warren,43.3115,-73.6448
752,156057,TOWN GLENVILLE SENIOR CTR EV3,Glenville,NY,12302,Schenectady,42.88,-73.9913
753,174713,BURNS MGT SCH COMM BLDG 3,Latham,NY,12110,Albany,42.7462,-73.763
754,227085,Carmella's CafÃ©,New Hartford,NY,13413,Oneida,43.0654,-75.2906
755,233084,LGA Airpark,East Elmhurst,NY,11369,Queens,40.7613,-73.8739
756,189518,Hamilton Square/Lia Realty Group,Guilderland,NY,12084,Albany,42.6973,-73.8975
757,230831,86-86 Palo Alto St,Hollis,NY,11423,Queens,40.7142,-73.7677
758,114881,Astoria Central Parking - Tesla Destination,Astoria,NY,11106,Queens,40.7608,-73.9295
759,228962,QUICKLEES 1 DCFC2,Avon,NY,14414,Livingston,42.903,-77.7274
760,162276,TOWN OF BABYLON TOWN ANNEX 2,North Babylon,NY,11703,Suffolk,40.7321,-73.3236
761,94838,Village of Fairhaven,Fair Haven,NY,13064,Cayuga,43.4313,-76.2004
762,115045,MPG 201 E 56th - Tesla Destination,New York,NY,10022,New York,40.7571,-73.9657
763,150574,Center Park 250 Albany - Tesla Destination,Manhattan,NY,10280,New York,40.7105,-74.0163
764,99950,Town of Veteran,Millport,NY,14864,Chemung,42.2581,-76.8392
765,44182,Huttig Nissan,Plattsburgh,NY,12901,Clinton,44.6927,-73.466
766,114973,Icon Parking 360 E 65th - Tesla Destination,Manhattan,NY,10065,New York,40.7651,-73.9638
767,115107,"The Carlyle Hotel, A Rosewood Hotel - Tesla Destination",New York,NY,10021,New York,40.7685,-73.9588
768,150639,Sylvan Gerard Garage - Tesla Destination,Forest Hills,NY,11375,Queens,40.7229,-73.8473
769,115032,Quikpark 173 W 12th Street - Tesla Destination,New York,NY,10011,New York,40.7402,-73.9996
770,227073,Burdick Ford,Central Square,NY,13036,Oswego,43.309,-76.1849
771,195768,MICHAELSGRP MICHAELS GROUP2,Mechanicville,NY,12118,Saratoga,42.9168,-73.7214
772,121068,ROSENBLUM300 187 WOLF RD,Albany,NY,12205,Albany,42.7198,-73.8207
773,214079,Hannaford Supermarket - Tesla Supercharger,Red Hook,NY,12571,Dutchess,42.0064,-73.8546
774,102348,Eastview Mall - Tesla Supercharger,Victor,NY,14564,Ontario,42.9866,-77.418
775,115124,Parkit 403 Lafayette St. - Tesla Destination,New York,NY,10003,New York,40.7313,-73.9892
776,180122,854ELLICOTT 854 ELLICOTT 1,Buffalo,NY,14203,Erie,42.8939,-78.8681
777,221912,TOY BINGHAMTON CT4020- 1,Binghamton,NY,13904,Broome,42.1171,-75.8653
778,168558,610 Warren Street - Tesla Destination,Brooklyn,NY,11217,Kings,40.6816,-73.9798
779,117729,Seneca Allegany Resort & Casino - Tesla Supercharger,Salamanca,NY,14779,Cattaraugus,42.1604,-78.7304
780,115141,iPark NYC Central Harlem Garage Corp. - Tesla Destination,New York,NY,10026,New York,40.8019,-73.9531
781,233120,PVA STATION 1,Halfmoon,NY,12065,Saratoga,42.8499,-73.7851
782,223136,Integra Optics,Albany,NY,12203,Albany,42.7003,-73.8575
783,150579,LAZ Parking 136-20 38th Ave - Tesla Destination,Flushing,NY,11354,Queens,40.7667,-73.8241
784,44342,Nemet Motors,Jamaica,NY,11432,Queens,40.7119,-73.7944
785,163426,CHARLIE JOHNS CHARLIE JOHNS,Speculator,NY,12164,Hamilton,43.5042,-74.3667
786,75944,Rochester Institute of Technology - Lot M,Rochester,NY,14623,Monroe,43.0834,-77.6344
787,162262,KINGSTON TR GALLO PARK,Kingston,NY,12401,Ulster,41.9697,-74.0668
788,204921,INN SQ INN SQ GW 1,Rochester,NY,14604,Monroe,43.1577,-77.608
789,194077,Willis Row - Tesla Supercharger,Roslyn Heights,NY,11577,Nassau,40.7845,-73.6403
790,162199,NATIONAL GRID KOHLS CLIFTON,Clifton Park,NY,12065,Saratoga,42.8499,-73.7851
791,123127,Queens college,Queens,NY,11367,Queens,40.728,-73.8195
792,234665,The Nature Conservancy,Cold Spring Harbor,NY,11724,Suffolk,40.8601,-73.4423
793,192934,TOWNE TV EV 2,Schenectady,NY,12303,Schenectady,42.7823,-73.9448
794,143300,MUNICIPAL BLDG TRAIN STATION 1,Croton-on-Hudson,NY,10520,Westchester,41.218,-73.8924
795,164503,HYDEPARK HYDE PK TOWN HA,Hyde Park,NY,12538,Dutchess,41.7887,-73.9063
796,114974,Icon Parking 205 E 63rd St - Tesla Destination,Manhattan,NY,10065,New York,40.7651,-73.9638
797,190452,KEELER STATION 04,Latham,NY,12110,Albany,42.7462,-73.763
798,169706,Energy Square,Kingston,NY,12401,Ulster,41.9697,-74.0668
799,185374,EVolve NY Oneonta,Oneonta,NY,13820,Otsego,42.4625,-75.0491
800,180146,ULSTER COUNTY DSS 3,Kingston,NY,12401,Ulster,41.9697,-74.0668
801,191436,PEAK POINT APT PEAK POINT EV2,Ballston Spa,NY,12020,Saratoga,43.005,-73.8486
802,181843,854ELLICOTT 134 HIGH ST 5,Buffalo,NY,14203,Erie,42.8939,-78.8681
803,223303,Legoland New York  Lot B,Goshen,NY,10924,Orange,41.3946,-74.3302
804,114958,Hilton Garden Inn - Downtown Ithaca - Tesla Destination,Ithaca,NY,14850,Tompkins,42.4406,-76.4966
805,163646,STOHL STOHL6,Orchard Park,NY,14127,Erie,42.7639,-78.7518
806,115129,Icon Parking Independent - Tesla Destination,New York,NY,10021,New York,40.7685,-73.9588
807,197115,EVolveNY LaGrangeville,LaGrangeville,NY,12540,Dutchess,41.6615,-73.745
808,201874,W Washington St Lot,Syracuse,NY,13202,Onondaga,43.041,-76.1489
809,202145,FUCCILLOHYUNDAI CPF50 #3,Grand Island,NY,14072,Erie,43.0183,-78.9591
810,229919,CJ's Italian Restaurant,Rhinebeck,NY,12572,Dutchess,41.9272,-73.8888
811,223131,Windham Mountain,Windham,NY,12496,Greene,42.3175,-74.262
812,191307,Ed Shults Chevrolet Cadillac,Jamestown,NY,14701,Chautauqua,42.0928,-79.244
813,180879,S.A.N.Y. PARKING THREE,Frankfort,NY,13340,Herkimer,43.044,-75.1072
814,217194,110 MAPLE AVE STATION 2,Rockville Centre,NY,11570,Nassau,40.6637,-73.638
815,223111,The Ridge - Lot B,Troy,NY,12180,Rensselaer,42.7287,-73.6683
816,225122,135 Pinelawn Rd,Melville,NY,11747,Suffolk,40.7946,-73.403
817,223225,117 South Main,Syracuse,NY,13212,Onondaga,43.1226,-76.1284
818,181662,HAMPTON INN STATION 2,Staten Island,NY,10314,Richmond,40.6039,-74.1472
819,227068,Binghamton University Smart Energy Building,Vestal,NY,13850,Broome,42.0771,-76.0118
820,122496,Shaheen's Adirondack Inn - Tesla Destination,Tupper Lake,NY,12986,Franklin,44.232,-74.4905
821,183389,SUNY CORTLAND DE GROAT 1.4,Cortland,NY,13045,Cortland,42.5952,-76.1857
822,205855,MB OF BUFFALO EV MERC BUFF 2,Williamsville,NY,14221,Erie,42.9685,-78.7492
823,191106,Crossgates Mall,Albany,NY,12203,Albany,42.7003,-73.8575
824,224230,GENESEO W PARK CENTER,Geneseo,NY,14454,Livingston,42.7938,-77.7996
825,189502,Schenectady County Building,Schenectady,NY,12305,Schenectady,42.8161,-73.9398
826,175127,14 HUDSON 14 HUDSON 1.2,Glens Falls,NY,12801,Warren,43.3115,-73.6448
827,155029,50 Yard Line Lot,Schenectady,NY,12308,Schenectady,42.8179,-73.9206
828,180669,STOHL STOHL5,Orchard Park,NY,14127,Erie,42.7639,-78.7518
829,143196,HUDSON PRESERVE BLDG 22 #3,Watervliet,NY,12189,Albany,42.7298,-73.7123
830,229204,QUICKLEES22 DCFC1,Belmont,NY,14813,Allegany,42.2334,-78.011
831,155242,MUNICIPAL EVSE ELM STREET 1,Glens Falls,NY,12801,Warren,43.3115,-73.6448
832,162213,NATIONAL GRID ONONDAGA LAKE,Liverpool,NY,13088,Onondaga,43.1099,-76.187
833,162371,SKIDMORE CASE,Saratoga Springs,NY,12866,Saratoga,43.0708,-73.7408
834,212941,STAYBRIDGE STATION2,Albany,NY,12205,Albany,42.7198,-73.8207
835,223238,Wellington Manor Building 4379,Liverpool,NY,13090,Onondaga,43.1528,-76.2235
836,222502,VILLAGE OF DELH VILLAGEOFDELHI,Delhi,NY,13753,Delaware,42.2937,-74.9207
837,114924,Asa Ransom House - Tesla Destination,Clarence,NY,14031,Erie,42.981,-78.6162
838,223270,Mechanicville Public Library,Mechanicville,NY,12118,Saratoga,42.9168,-73.7214
839,199508,831 3rd Ave,Brooklyn,NY,11232,Kings,40.6521,-74.0018
840,207592,CMH STATION 2,Hudson,NY,12534,Columbia,42.247,-73.7552
841,166333,LaSalle Parking LLS Shumai LLC (220 E 9th St.),Manhattan,NY,10003,New York,40.7313,-73.9892
842,184903,RTS IRONDEQUOIT #1,Irondequoit,NY,14617,Monroe,43.2203,-77.5994
843,180166,PANYNJ LGA E GARAGE W1,New York,NY,11371,Queens,40.7721,-73.8735
844,150534,4320 Broadway-PARK-it - Tesla Destination,Manhattan,NY,10033,New York,40.8496,-73.9356
845,152158,Outerbridge Commons - Tesla Supercharger,New York City,NY,10309,Richmond,40.5352,-74.2116
846,162299,VILLAGE HF HGHLAND FALLS,Highland Falls,NY,10928,Orange,41.3582,-73.9746
847,150002,RRH UNITY POB 2,Rochester,NY,14626,Monroe,43.2126,-77.704
848,123097,Saranac Lake - 3 Main St,Saranac Lake,NY,12983,Franklin,44.3243,-74.133
849,157960,Nannen Arboretum,Ellicottville,NY,14731,Cattaraugus,42.2959,-78.6606
850,223091,Airport Executive Park,Nanuet,NY,10954,Rockland,41.0977,-74.0109
851,211922,The Woods Inn,Inlet,NY,13360,Hamilton,43.748,-74.7846
852,223299,181 E 73rd Street,New York,NY,10021,New York,40.7685,-73.9588
853,143586,BURNS MGT WHITMORE #1,Saratoga Springs,NY,12866,Saratoga,43.0708,-73.7408
854,164681,Icon Parking - One Lincoln Plaza,New York,NY,10023,New York,40.7764,-73.9827
855,221326,First Avenue Parking,New York,NY,10016,New York,40.7443,-73.9781
856,225382,MILTON NY STATION 3,Ballston Spa,NY,12020,Saratoga,43.005,-73.8486
857,197851,EVolveNY Schodack,Schodack,NY,12033,Rensselaer,42.5376,-73.7071
858,154452,PICOTTE 1450 WESTERN 2,Albany,NY,12203,Albany,42.7003,-73.8575
859,123392,SUNY NEW PALTZ STATION 2,New Paltz,NY,12561,Ulster,41.7464,-74.1092
860,154919,Cloudsplitter Outfitters LLC,Newcomb,NY,12852,Essex,43.946,-74.1299
861,150746,Dartmouth House - Tesla Destination,Rochester,NY,14607,Monroe,43.1501,-77.589
862,220394,BNE MASTER 5000 MURRAY ST4,Pearl River,NY,10965,Rockland,41.0629,-74.0159
863,171343,FLEETWOODGARAGE STATION ONE,Mount Vernon,NY,10552,Westchester,40.9231,-73.8299
864,223049,EVolve NY Commack,Commack,NY,11725,Suffolk,40.843,-73.2799
865,165220,VOB KENSINGTON 2,Bronxville,NY,10708,Westchester,40.9391,-73.8353
866,174408,RRH CLIFTON LEFT 1,Clifton Springs,NY,14432,Ontario,42.9632,-77.144
867,200987,NYU NYU # 2,New York,NY,10012,New York,40.7255,-73.9983
868,162345,MUNICIPAL EVSE PARK STREET 1,Glens Falls,NY,12801,Warren,43.3115,-73.6448
869,114891,Quik Park Armory Parking Inc. - Tesla Destination,Brooklyn,NY,11205,Kings,40.6924,-73.9666
870,102336,E 47th Street - Tesla Supercharger,New York,NY,10017,New York,40.7517,-73.9707
871,162153,ERIE COUNTY COMO PARK,Lancaster,NY,14086,Erie,42.9017,-78.6631
872,114940,Sylvan Pinnacle Garage - Tesla Destination,Forest Hills,NY,11375,Queens,40.7229,-73.8473
873,174184,TATABROOKFIELD #5,New York,NY,10044,New York,40.7618,-73.9505
874,162230,NATIONAL GRID MISCI,Schenectady,NY,12308,Schenectady,42.8179,-73.9206
875,180104,LIA HONDA SHOP1,Buffalo,NY,14221,Erie,42.9685,-78.7492
876,193354,TEK AUTOMOTIVE CAP ALBANY 1,Colonie,NY,12205,Albany,42.7198,-73.8207
877,162292,K&H STATION 1 KELLY & HAYES,Nesconset,NY,11767,Suffolk,40.8462,-73.1482
878,115196,MPG 923 5th Ave - Tesla Destination,New York,NY,10021,New York,40.7685,-73.9588
879,193749,SCCC AMMERMAN 5,Farmingville,NY,11738,Suffolk,40.8366,-73.0413
880,65284,Beacon - Metro North Train Station,Beacon,NY,12508,Dutchess,41.5097,-73.9634
881,229077,Crossroads Ford,Ravena,NY,12143,Albany,42.4754,-73.822
882,170449,233 LAKE AVE GROVE 1.5,Saratoga Springs,NY,12866,Saratoga,43.0708,-73.7408
883,181109,PICOTTE 22 CORPORATE 3,Albany,NY,12211,Albany,42.713,-73.7739
884,143493,HYATT POUGHKEPS HYATT POUGHKEPS,Poughkeepsie,NY,12601,Dutchess,41.7035,-73.9117
885,115157,MPG 543 W 110th Street Garage - Tesla Destination,New York,NY,10025,New York,40.7975,-73.9683
886,175754,EXECUTIVE PARK #3,Montebello,NY,10901,Rockland,41.1177,-74.1241
887,114985,Icon Parking 1056 5th Avenue - Tesla Destination,New York,NY,10028,New York,40.7763,-73.9529
888,170029,HWS COLLEGES MEDBERY LOT,Geneva,NY,14456,Ontario,42.8637,-76.9913
889,123093,Public Market,Rochester,NY,14609,Monroe,43.174,-77.5637
890,114886,Hunt County Vineyards - Tesla Destination,Branchport,NY,14418,Yates,42.6065,-77.2052
891,44208,Vision Nissan,Webster,NY,14580,Monroe,43.2196,-77.4616
892,227766,TPWC  TPWC 6,Altamont,NY,12009,Albany,42.7063,-74.0193
893,115017,Rapidpark 15 W 72nd Street - Tesla Destination,New York,NY,10023,New York,40.7764,-73.9827
894,230714,Regeneron Troy,Troy,NY,12180,Rensselaer,42.7287,-73.6683
895,72907,Hampton Inn - Schenectady,Schenectady,NY,12305,Schenectady,42.8161,-73.9398
896,115000,GMC 111 E 82nd St - Tesla Destination,New York,NY,10065,New York,40.7651,-73.9638
897,122470,ProPark 184 Kent Ave - Tesla Destination,Brooklyn,NY,11249,Kings,40.6451,-73.945
898,115230,Wingate By Wyndham Rome - Tesla Destination,Rome,NY,13441,Oneida,43.2264,-75.4083
899,227359,PVECSTATION1 PAKWAY VILLAGE,Jamaica,NY,11435,Queens,40.7029,-73.8111
900,223096,HVCC - Lot A,Troy,NY,12180,Rensselaer,42.7287,-73.6683
901,233087,KLV Properties,Amsterdam,NY,12010,Montgomery,42.9387,-74.1882
902,115022,Icon Parking 155 E 29th Street - Tesla Destination,New York,NY,10016,New York,40.7443,-73.9781
903,231007,Smiling Tedâ€™s Quality Used Car,Buffalo,NY,14211,Erie,42.9082,-78.8225
904,182199,69 COLLIER ST STATION 1,Binghamton,NY,13901,Broome,42.1463,-75.8865
905,124141,Coliseum Park Apts - Central Parking,New York,NY,10019,New York,40.7651,-73.9858
906,174770,TONAWANDA YPR GOLF DOME 2,Tonawanda,NY,14150,Erie,43.0028,-78.8547
907,193752,THE VANDERBILT BEECHWOOD HOMES,Westbury,NY,11590,Nassau,40.7557,-73.5723
908,165397,ADAMS STATION 701 BAXTER,Delmar,NY,12054,Albany,42.6158,-73.8373
909,189684,"Dover Plains Library, Town Of Dover NY",Wingdale,NY,12594,Dutchess,41.6538,-73.5556
910,227972,Cumberland Farms,Manorville,NY,11949,Suffolk,40.8421,-72.8002
911,143437,BA #1 11 BRITISH AMER,Latham,NY,12110,Albany,42.7462,-73.763
912,193353,TEK AUTOMOTIVE CAP ALBANY 2,Colonie,NY,12205,Albany,42.7198,-73.8207
913,226548,Stever-Locke Industries Inc,Honeoye Falls,NY,14472,Monroe,42.9695,-77.5781
914,207787,ESF STATION 2,Syracuse,NY,13210,Onondaga,43.0354,-76.1282
915,123040,520806-Rockefeller Center,New York City,NY,10036,New York,40.7597,-73.9918
916,219480,"Brixmor North Ridge Shopping Center (New Rochelle,",New Rochelle,NY,10804,Westchester,40.9491,-73.7863
917,235546,COLLEGE PKWY STATION 1,Amherst,NY,14221,Erie,42.9685,-78.7492
918,206911,BORO PARK BORO CHARGE 4,Borough Park,NY,11219,Kings,40.6336,-73.996
919,162322,VILLAGE HALL WELCOME CENTER,Brockport,NY,14420,Monroe,43.2128,-77.9368
920,189522,Hudson Square,Cohoes,NY,12047,Albany,42.7754,-73.7124
921,183769,CHEEKTOWAGA ALEXANDER #4,Buffalo,NY,14211,Erie,42.9082,-78.8225
922,174042,SUNY NEW PALTZ ROUTE 32 (2),New Paltz,NY,12561,Ulster,41.7464,-74.1092
923,227692,Mirror Lake Inn Resort,Lake Placid,NY,12946,Essex,44.2796,-73.982
924,44358,Nissan Kia - Middletown,New Hampton,NY,10958,Orange,41.3627,-74.4435
925,168414,532 W 122nd St,New York,NY,10027,New York,40.8116,-73.955
926,150570,Icon Parking 202 E 18th Street - Tesla Destination,Manhattan,NY,10003,New York,40.7313,-73.9892
927,115061,Champion Parking 230 W 55th Street - Tesla Destination,New York,NY,10019,New York,40.7651,-73.9858
928,233105,Wilton Town Hall,Gansevoort,NY,12831,Saratoga,43.1803,-73.7053
929,212980,STPETERHOSPITAL EV STATION #3,Albany,NY,12208,Albany,42.656,-73.7964
930,235134,Geneva on the Lake Resort,New York,NY,14456,Ontario,42.8637,-76.9913
931,213839,TNC EVSE TOWN HALL,Chappaqua,NY,10514,Westchester,41.1705,-73.7715
932,92116,Village of Sodus,Sodus,NY,14551,Wayne,43.2217,-77.0514
933,146876,Shops at Skyview center,Flushing,NY,11354,Queens,40.7667,-73.8241
934,223701,COURTYARD REPUB STATION 2,Farmingdale,NY,11735,Nassau,40.7315,-73.4327
935,115162,Icon Parking 560 Third Ave - Tesla Destination,New York,NY,10016,New York,40.7443,-73.9781
936,115079,Parkright 39 E 29th Street - Tesla Destination,New York,NY,10016,New York,40.7443,-73.9781
937,226518,TOPS Friendly Markets,Watkins Glen,NY,14891,Schuyler,42.3771,-76.9022
938,154725,VIC AND CAMPUS LOT 13 1.1,Paul Smiths,NY,12970,Franklin,44.445,-74.2664
939,102328,Shops at Main / Transit - Tesla Supercharger,Buffalo,NY,14221,Erie,42.9685,-78.7492
940,182265,SUNY BUFFALO JACOBS 7,Buffalo,NY,14228,Erie,43.0408,-78.7812
941,174709,CITY HALL 12534 CITY HALL 1,Hudson,NY,12534,Columbia,42.247,-73.7552
942,223099,Lake View Inn,Lake George,NY,12845,Warren,43.4167,-73.6975
943,114953,Fairfield Inn & Suites by Marriott Elmira Corning - Tesla Destination,Horseheads,NY,14845,Chemung,42.1805,-76.8345
944,165392,ADAMS STATION 708 CATLYN CT,Delmar,NY,12054,Albany,42.6158,-73.8373
945,223118,Russell Sage College,Troy,NY,12180,Rensselaer,42.7287,-73.6683
946,44192,Lia Nissan,Schenectady,NY,12304,Schenectady,42.7841,-73.9094
947,223235,Mohawk Honda Collision Center Inside,Schenectady,NY,12302,Schenectady,42.88,-73.9913
948,185449,Albany Parking Authority - Riverfront Garage,Albany,NY,12207,Albany,42.6526,-73.7562
949,115225,"Country Inn & Suites by Radisson, Rochester Airport - Tesla Destination",Rochester,NY,14623,Monroe,43.0834,-77.6344
950,212140,ULSTER COUNTY SUNY EXTENSION,Kingston,NY,12401,Ulster,41.9697,-74.0668
951,214301,TOWN OF MORIAH MORIAHEV2,Port Henry,NY,12974,Essex,44.0465,-73.4705
952,187815,Beekman Parking,New York,NY,10022,New York,40.7571,-73.9657
953,230811,Town Hall,Moreau,NY,12828,Washington,43.2653,-73.5822
954,221435,FC1225 UNION ST CT4K 2,Rochester,NY,14607,Monroe,43.1501,-77.589
955,235400,Rockaway Beach Hotel,Rockaway Park,NY,11694,Queens,40.5766,-73.8428
956,149365,Palisades Shopping Center - Tesla Supercharger,West Nyack,NY,10994,Rockland,41.0973,-73.9768
957,147094,Amtrak - Niagara Falls,Niagara Falls,NY,14305,Niagara,43.1146,-79.0378
958,223228,Wellington Gardens,Schenectady,NY,12306,Schenectady,42.7904,-73.9809
959,173967,RRH RIEDMAN CANP1,Rochester,NY,14617,Monroe,43.2203,-77.5994
960,202805,MB OF BUFFALO DC MERC BUFF 1,Williamsville,NY,14221,Erie,42.9685,-78.7492
961,225846,Stop & Shop,Newburgh,NY,12550,Orange,41.5372,-74.0526
962,115028,iPark NYC E 77th Street - Tesla Destination,New York,NY,10014,New York,40.7339,-74.0054
963,225576,30-10 35th Street,Queens,NY,11103,Queens,40.7627,-73.9149
964,231043,26 South St,Cattaraugus,NY,14719,Cattaraugus,42.3333,-78.8885
965,230231,New Tech Energy,Brooklyn,NY,11230,Kings,40.6225,-73.965
966,49676,Vision Nissan Greece,Rochester,NY,14626,Monroe,43.2126,-77.704
967,114919,The William Vale Hotel - Tesla Destination,Brooklyn,NY,11249,Kings,40.6451,-73.945
968,162236,NATIONAL GRID SUNY IT,Utica,NY,13502,Oneida,43.1067,-75.2314
969,226517,Watkins Glen State Park Parking,Watkins Glen,NY,14891,Schuyler,42.3771,-76.9022
970,187173,Exit 38 (Liverpool),Bayberry,NY,13088,Onondaga,43.1099,-76.187
971,184039,Red Roof Inn,Binghamton,NY,13905,Broome,42.1151,-75.9309
972,162451,BMW S. ALBANY STATION 01,Glenmont,NY,12077,Albany,42.5971,-73.7959
973,117743,Capital Region Welcome Center,Hannacroix,NY,12087,Greene,42.429,-73.8093
974,180118,854ELLICOTT 854 ELLICOTT 4,Buffalo,NY,14203,Erie,42.8939,-78.8681
975,169127,St. Josephs Hospital - Tesla Destination,Bethpage,NY,11714,Nassau,40.74,-73.4857
976,191113,Sake,Latham,NY,12110,Albany,42.7462,-73.763
977,182157,COMFORT- CHARGE STATION 2,Lake George,NY,12845,Warren,43.4167,-73.6975
978,174929,600 RIVER ROAD 600 RIVER 92107,North Tonawanda,NY,14120,Niagara,43.0498,-78.851
979,115179,Quik Park Little West LLC - Tesla Destination,New York,NY,10280,New York,40.7105,-74.0163
980,195710,Village of Westfield,Westfield,NY,14787,Chautauqua,42.322,-79.5726
981,115117,GGMC Parking Carnegie Garage - Tesla Destination,New York,NY,10128,New York,40.7816,-73.9511
982,144137,HWS COLLEGES 288 PULTENEY 1,Geneva,NY,14456,Ontario,42.8637,-76.9913
983,149646,BEAVER LAKE BEAVER LAKE 2,Baldwinsville,NY,13027,Onondaga,43.162,-76.3237
984,194320,NORTHEAST IS STATION 1,Albany,NY,12205,Albany,42.7198,-73.8207
985,232955,EXIT 14 P&R EXIT 14 P&R,Nanuet,NY,10954,Rockland,41.0977,-74.0109
986,162207,NATIONAL GRID CHILI'S NIAGARA,Niagara Falls,NY,14304,Niagara,43.0908,-78.9644
987,115054,Icon Parking 220 Riverside Blvd - Tesla Destination,New York,NY,10024,New York,40.7864,-73.9764
988,182264,SUNY BUFFALO JACOBS 5,Buffalo,NY,14228,Erie,43.0408,-78.7812
989,181847,854ELLICOTT 134 HIGH ST 7,Buffalo,NY,14203,Erie,42.8939,-78.8681
990,194627,SIENA COLLEGE MORRELL EVSE2,Latham,NY,12110,Albany,42.7462,-73.763
991,115088,Icon Parking 308 Greenwich - Tesla Destination,New York,NY,10013,New York,40.7185,-74.0025
992,162280,TOWN OF BABYLON TANNER PARK 1,Amityville,NY,11701,Suffolk,40.6842,-73.4171
993,175627,TOWN GLENVILLE SENIOR CTR EV2,Glenville,NY,12302,Schenectady,42.88,-73.9913
994,156639,MARKET 32 EV BALLTOWN EV1,Schenectady,NY,12304,Schenectady,42.7841,-73.9094
995,154583,DELLA HONDA SHOP02,Plattsburgh,NY,12901,Clinton,44.6927,-73.466
996,202637,Adirondack Health Center,Saranac Lake,NY,12983,Franklin,44.3243,-74.133
997,196103,TSRC LODGE,Verona,NY,13478,Oneida,43.1473,-75.5724
998,123119,Pawling,Pawling,NY,12564,Dutchess,41.5749,-73.5948
999,229083,Collar City Auto Haus,Troy,NY,12182,Rensselaer,42.7829,-73.6648
1000,229904,Chris' Coffee,Latham,NY,12110,Albany,42.7462,-73.763
1001,203132,MARRIOTTSS STATION 1,Saratoga Springs,NY,12866,Saratoga,43.0708,-73.7408
1002,121237,RPI 1 OFF CAMPUS S1,Troy,NY,12180,Rensselaer,42.7287,-73.6683
1003,162257,CHATHAM EVC CHATHAM,Chatham,NY,12037,Columbia,42.3496,-73.5873
1004,195969,WATERVLIET DOME 1,Watervliet,NY,12189,Albany,42.7298,-73.7123
1005,167256,AMCR CASINO 1.2,Akwesasne,NY,13655,St. Lawrence,44.9825,-74.6626
1006,220945,BMWHV LEVEL TWO,Poughkeepsie,NY,12601,Dutchess,41.7035,-73.9117
1007,203086,MB ROCHESTER NY STATION 1,Rochester,NY,14623,Monroe,43.0834,-77.6344
1008,202332,GHMC PARKINGGARAGE3,Middletown,NY,10940,Orange,41.4512,-74.4701
1009,115146,Roger Smith Hotel - Tesla Destination,New York,NY,10017,New York,40.7517,-73.9707
1010,162164,WOODLAWN GARAGE WOODLAWN,Saratoga Springs,NY,12866,Saratoga,43.0708,-73.7408
1011,216526,NAT GRID WRKPLC SOC LOT2 STN 1,Syracuse,NY,13202,Onondaga,43.041,-76.1489
1012,162386,PARKING GARAGE STATION 2,White Plains,NY,10606,Westchester,41.0247,-73.7781
1013,223322,DOCK STATION 9,New York,NY,10155,New York,40.7611,-73.968
1014,175106,FAIRFIELD VERON FAIRFIELD 1.2,Verona,NY,13478,Oneida,43.1473,-75.5724
1015,166689,ICE RINK TOWN HALL,Saugerties,NY,12477,Ulster,42.0738,-73.9797
1016,196566,NYC FLEET DCASCSTHSE_2_L3,Middle Village,NY,11379,Queens,40.7173,-73.8792
1017,192639,AECSOLAR STATION 5 AEC,Albany,NY,12203,Albany,42.7003,-73.8575
1018,162435,GAULT BMW STATION 01,Endicott,NY,13760,Broome,42.1506,-76.0551
1019,122488,MTP Parking 41-42 24th Street - Tesla Destination,Long Island City,NY,11101,Queens,40.7446,-73.9345
1020,115049,Icon Parking 810 Seventh Ave - Tesla Destination,New York,NY,10019,New York,40.7651,-73.9858
1021,229094,Charlie Johns Store,Speculator,NY,12164,Hamilton,43.5042,-74.3667
1022,180890,FOODBANK LATHAM PARKING THREE,Latham,NY,12110,Albany,42.7462,-73.763
1023,185305,SAMARITAN TROY FLR 1 EV 1,Troy,NY,12180,Rensselaer,42.7287,-73.6683
1024,145671,GARDEN CHARGERS JOVIA #5,Westbury,NY,11590,Nassau,40.7557,-73.5723
1025,114914,Standard Parking 2 Metrotech - Tesla Destination,Brooklyn,NY,11201,Kings,40.694,-73.9903
1026,174195,COLACINO INUSTR COLACINO 4,Newark,NY,14513,Wayne,43.0519,-77.0946
1027,152438,TANNERSVILLE MUNICIPAL LOT,Tannersville,NY,12485,Greene,42.1956,-74.1338
1028,224225,GENESEO W PARK LEFT,Geneseo,NY,14454,Livingston,42.7938,-77.7996
1029,154336,5TH AVE RIVER STREET 4,Troy,NY,12180,Rensselaer,42.7287,-73.6683
1030,223218,War Cannon,Crown Point,NY,12928,Essex,43.9526,-73.4665
1031,104824,Town of Danby,Ithaca,NY,14850,Tompkins,42.4406,-76.4966
1032,91865,Price Chopper,Liverpool,NY,13090,Onondaga,43.1528,-76.2235
1033,158556,MARKET 32 EV SARANAC EV1,Lake Placid,NY,12946,Essex,44.2796,-73.982
1034,167130,Stone Ridge Public Library,Stone Ridge,NY,12484,Ulster,41.8616,-74.1697
1035,165304,TOWN OF BOLTON TOWN OF BOLTON1,Bolton Landing,NY,12814,Warren,43.5766,-73.6714
1036,197669,BCH STATION1,Springville,NY,14141,Erie,42.52,-78.6847
1037,164861,SANTOSHI CORP STATION 1.1,Plattsburgh,NY,12901,Clinton,44.6927,-73.466
1038,115114,Icon Parking 111 8th Ave Parking - Tesla Destination,New York,NY,10011,New York,40.7402,-73.9996
1039,230851,Village of Dryden,Dryden,NY,13053,Tompkins,42.4861,-76.2872
1040,174519,EPLLC LOCKHEED 3,Liverpool,NY,13088,Onondaga,43.1099,-76.187
1041,202124,WATERVLIET PARK 4,Watervliet,NY,12189,Albany,42.7298,-73.7123
1042,115174,Parkit 10 Wooster St. - Tesla Destination,New York,NY,10013,New York,40.7185,-74.0025
1043,122475,IMPark 353 4th Ave - Tesla Destination,Brooklyn,NY,11215,Kings,40.6669,-73.9828
1044,157957,Lucille Ball Memorial Park,Celoron,NY,14701,Chautauqua,42.0928,-79.244
1045,217196,110 MAPLE AVE STATION 4 (50),Rockville Centre,NY,11570,Nassau,40.6637,-73.638
1046,162313,CHEEKTOWAGA CHEEKTOWAGA,Cheektowaga,NY,14225,Erie,42.9255,-78.7481
1047,173885,BURNS MGT HV 3,Guilderland,NY,12084,Albany,42.6973,-73.8975
1048,188148,Minetta Garage,New York,NY,10012,New York,40.7255,-73.9983
1049,149299,Mall at Bay Plaza - Tesla Supercharger,Bronx,NY,10475,Bronx,40.8729,-73.8278
1050,193882,MUNI LOT STATION 2,Lake Placid,NY,12946,Essex,44.2796,-73.982
1051,226485,Chautauqua Institution School of Art - North Lot,Chatauqua,NY,14757,Chautauqua,42.2409,-79.4963
1052,162183,DEWITT EV 1 STATION 2,East Syracuse,NY,13057,Onondaga,43.0734,-76.0558
1053,192753,STEINSCHINDER 8W MAIN ST,Hastings-on-Hudson,NY,10706,Westchester,40.9878,-73.863
1054,181425,SUNY ADIRONDACK SUNY ACC 1.2,Queensbury,NY,12804,Warren,43.329,-73.6818
1055,217436,MOHAWK CHEVY MOHAWKCHEVY2,Malta,NY,12020,Saratoga,43.005,-73.8486
1056,191506,3474 Putnam Place,Bronx,NY,10467,Bronx,40.8737,-73.8712
1057,162366,STATION 1 TOWN OF LG,Lake George,NY,12845,Warren,43.4167,-73.6975
1058,183105,POUGHEEPSIE EV POUGHKEEPSIE 2,Poughkeepsie,NY,12601,Dutchess,41.7035,-73.9117
1059,181717,CONVENIENT MED CONV. MED EV 1,Queensbury,NY,12804,Warren,43.329,-73.6818
1060,162350,CITYOFGLEN COVE PULASKI ST GARG,Glen Cove,NY,11542,Nassau,40.865,-73.6277
1061,230929,4. Million Air,Albany,NY,12211,Albany,42.713,-73.7739
1062,227680,Generations Park Ice Rink,Hogansburg,NY,13655,St. Lawrence,44.9825,-74.6626
1063,228090,Hannaford Supermarket,Altamont,NY,12009,Albany,42.7063,-74.0193
1064,114907,Kings County Parking - Tesla Destination,Brooklyn,NY,11203,Kings,40.6505,-73.9349
1065,205468,EVolve NY Niagara Falls,Niagara Falls,NY,14304,Niagara,43.0908,-78.9644
1066,115250,Winwood Inn - Windham Mountain Resort - Tesla Destination,Windham,NY,12496,Greene,42.3175,-74.262
1067,150697,Brunos Bakery and Restaurant - Tesla Destination,Staten Island,NY,10310,Richmond,40.6324,-74.1171
1068,225170,TOWNE HYUNDAI 3B,Orchard Park,NY,14127,Erie,42.7639,-78.7518
1069,171697,ROCHESTER NY PORT OF ROCH 2,Rochester,NY,14612,Monroe,43.2566,-77.6652
1070,181869,TCR TOWERS EV STATION 1,Albany,NY,12205,Albany,42.7198,-73.8207
1071,154412,U OF R BAILEY RD 1,West Henrietta,NY,14586,Monroe,43.0397,-77.6871
1072,187175,Exit 49 (Depew),Williamsville,NY,14221,Erie,42.9685,-78.7492
1073,223250,Quaker Street Branch Library,Delanson,NY,12053,Schenectady,42.748,-74.1868
1074,181989,SHG FAIRFIELD 1.1,Queensbury,NY,12804,Warren,43.329,-73.6818
1075,65274,Hamilton Parking Garage,White Plains,NY,10601,Westchester,41.033,-73.7652
1076,115213,Hampton Inn Potsdam - Tesla Destination,Potsdam,NY,13676,St. Lawrence,44.6592,-74.9681
1077,226724,Greystone Jewish Center,Yonkers,NY,10701,Westchester,40.9461,-73.8669
1078,226486,Ellicott Town Justice Court,Falconer,NY,14733,Chautauqua,42.1239,-79.1895
1079,164272,RTS ROCH TECH PK2,Rochester,NY,14624,Monroe,43.1216,-77.7311
1080,204760,PATRON STATION1,Lindenhurst,NY,11757,Suffolk,40.6884,-73.3745
1081,227770,TPWC  TPWC 9,Altamont,NY,12009,Albany,42.7063,-74.0193
1082,162151,IBEW 325 STATION 1,Binghamton,NY,13904,Broome,42.1171,-75.8653
1083,221986,CANDLE PARK-03,Vestal,NY,13850,Broome,42.0771,-76.0118
1084,155288,VASSAR COLLEGE SOUTH LOT 2,Arlington,NY,12603,Dutchess,41.6907,-73.8621
1085,162130,ULSTER COUNTY TRUDY RESNICK,Ellenville,NY,12428,Ulster,41.7218,-74.4141
1086,223274,Deer Valley Building 3,Guilderland,NY,12084,Albany,42.6973,-73.8975
1087,187817,Travelers Parking,New York,NY,10014,New York,40.7339,-74.0054
1088,162303,E.H. VILLAGE LONGTERMLOT1,East Hampton,NY,11937,Suffolk,40.993,-72.179
1089,235863,FOX CDJR STATION 2,Auburn,NY,13021,Cayuga,42.93,-76.5626
1090,183122,NAT GRID WRKPLC SOC LOT2 STN 4,Syracuse,NY,13202,Onondaga,43.041,-76.1489
1091,122790,SUNY NEW PALTZ INTERNATIONAL,New Paltz,NY,12561,Ulster,41.7464,-74.1092
1092,153089,THE SAGAMORE SAGAMORE 1.2,Bolton,NY,12814,Warren,43.5766,-73.6714
1093,114996,Rapidpark 99 Park Ave - Tesla Destination,New York,NY,10016,New York,40.7443,-73.9781
1094,223257,420 E. 53rd St.,New York,NY,10022,New York,40.7571,-73.9657
1095,170367,DENNYâ€™S / RED ROOF INN,Herkimer,NY,13350,Herkimer,43.0307,-74.9876
1096,174492,SULLIVAN COUNTY SULLIVAN 1,Monticello,NY,12701,Sullivan,41.6516,-74.7007
1097,223259,Hyatt Place Malta,Ballston Spa,NY,12020,Saratoga,43.005,-73.8486
1098,168428,Irvington Public Library,Irvington,NY,10533,Westchester,41.0381,-73.8597
1099,157965,Dunkinâ€™,Batavia,NY,14020,Genesee,43.0003,-78.1929
1100,70451,Fuccillo Nissan,Liverpool,NY,13090,Onondaga,43.1528,-76.2235
1101,217354,INDUSTRY CITY LOT B EAST,Brooklyn,NY,11232,Kings,40.6521,-74.0018
1102,230844,"Northern Development, LLC",Pittsford,NY,14534,Monroe,43.0695,-77.5141
1103,180100,DOUBLEDAY EV COOPERSTOWN 2,Cooperstown,NY,13326,Otsego,42.7005,-74.9243
1104,173864,BURNS MGT OXFORD 4,Albany,NY,12203,Albany,42.7003,-73.8575
1105,154200,EV Charge Solutions - Headquarters,Rush,NY,14543,Monroe,42.9966,-77.6665
1106,114981,Borland House Bed and Breakfast - Tesla Destination,Montgomery,NY,12549,Orange,41.5333,-74.2534
1107,183754,KINGSTON VW STATION 1,Kingston,NY,12401,Ulster,41.9697,-74.0668
1108,223292,305 East 80th Street,New York,NY,10075,New York,40.7143,-74.006
1109,223121,Greymoor Way - Building 4,Baldwinsville,NY,13027,Onondaga,43.162,-76.3237
1110,162177,NATIONAL GRID KOHLS HUDSON,Hudson,NY,12534,Columbia,42.247,-73.7552
1111,223290,LIRR Station Plaza,Southampton,NY,11968,Suffolk,40.9043,-72.4103
1112,180161,DEER PARK TANGER EV 2,Deer Park,NY,11729,Suffolk,40.7591,-73.3257
1113,114948,Peppermints Restaurant - Tesla Destination,Henrietta,NY,14467,Monroe,43.0483,-77.6122
1114,226503,Monroe Community College - Lot M,Rochester,NY,14623,Monroe,43.0834,-77.6344
1115,220316,MB OF WF SERVICE REAR,Wappingers Falls,NY,12590,Dutchess,41.595,-73.8876
1116,230924,Grand Prize Chevrolet Buick GMC Cadillac,nanuet,NY,10954,Rockland,41.0977,-74.0109
1117,230788,BNY - Building 292,Brooklyn,NY,11205,Kings,40.6924,-73.9666
1118,115191,Icon 9-11 Park Ave - Tesla Destination,New York,NY,10016,New York,40.7443,-73.9781
1119,63643,Towne Ford Lincoln,Orchard Park,NY,14075,Erie,42.7334,-78.8389
1120,148165,Bottle Bargains,Northport,NY,11768,Suffolk,40.9051,-73.3309
1121,115208,Holiday Inn Express Painted Post - Corning Area - Tesla Destination,Painted Post,NY,14870,Steuben,42.171,-77.1194
1122,181234,PICOTTE 12 CORPORATE 2,Albany,NY,12211,Albany,42.713,-73.7739
1123,123549,SKIDMORE PALAMOUNTAIN 1,Saratoga Springs,NY,12866,Saratoga,43.0708,-73.7408
1124,223128,Greymoor Way - Building 13B,Baldwinsville,NY,13027,Onondaga,43.162,-76.3237
1125,115013,Icon Parking 1350 Avenue of the Americas - Tesla Destination,New York,NY,10019,New York,40.7651,-73.9858
1126,162147,RPI 1 RPI FLEET,Troy,NY,12180,Rensselaer,42.7287,-73.6683
1127,200474,115 Fort Washington Ave,New York,NY,10032,New York,40.8382,-73.942
1128,235445,LKT SOUTH 2,Kingston,NY,12401,Ulster,41.9697,-74.0668
1129,115094,Glenwood Belmont Parking - Tesla Destination,New York,NY,10021,New York,40.7685,-73.9588
1130,228614,Somers Commons Shopping Center,Baldwin Place,NY,10505,Westchester,41.3421,-73.7454
1131,153509,14 HUDSON 14 HUDSON 1.1,Glens Falls,NY,12801,Warren,43.3115,-73.6448
1132,229932,Harbec,Ontario,NY,14519,Wayne,43.2291,-77.3088
1133,233250,COLE GROUP RIVERHILL 1,Menands,NY,12204,Albany,42.6847,-73.7354
1134,230802,Cortlandt - Metro North Train Station,Montrose,NY,10548,Westchester,41.2496,-73.9446
1135,229073,OrthoNY,Clifton Park,NY,12065,Saratoga,42.8499,-73.7851
1136,147461,FMCC FMCC 2,Johnstown,NY,12095,Fulton,43.0069,-74.3715
1137,166770,BETHLEHEM EV TOWNHALL PUBLIC,Delmar,NY,12054,Albany,42.6158,-73.8373
1138,114918,imPark 101 Bedford Ave - Tesla Destination,Brooklyn,NY,11211,Kings,40.7095,-73.9563
1139,174180,TATABROOKFIELD GATEWAY #1,New York,NY,10044,New York,40.7618,-73.9505
1140,115066,GGMC Ruppert Car Park - Tesla Destination,New York,NY,10128,New York,40.7816,-73.9511
1141,102332,Holiday Inn - Tesla Supercharger,Liverpool,NY,13088,Onondaga,43.1099,-76.187
1142,213461,NYS PARKS LI STATION 1,Lakeview,NY,11552,Nassau,40.6929,-73.6539
1143,170241,ERIE COUNTY STATION ONE,Buffalo,NY,14221,Erie,42.9685,-78.7492
1144,225162,FIVE-STAR BANK SOUTH CHARGER,Buffalo,NY,14221,Erie,42.9685,-78.7492
1145,180113,854ELLICOTT 854 ELLICOTT 6,Buffalo,NY,14203,Erie,42.8939,-78.8681
1146,149544,MOSEY MOSEY 1,Williamsville,NY,14221,Erie,42.9685,-78.7492
1147,164375,Burger King Attica NY,Attica,NY,14011,Wyoming,42.8499,-78.2798
1148,162209,NATIONAL GRID NEW HAMPTON INN,Syracuse,NY,13212,Onondaga,43.1226,-76.1284
1149,231094,MAINLOT MAIN LOT LEFT 1,Lakewood,NY,14750,Chautauqua,42.0973,-79.3291
1150,226522,UR Medicine St. James Hospital,Hornell,NY,14843,Steuben,42.3274,-77.6569
1151,154659,Holiday Inn Express & Suites,Saugerties,NY,12477,Ulster,42.0738,-73.9797
1152,156813,TOWN GLENVILLE IM PARK EV1,Glenville,NY,12302,Schenectady,42.88,-73.9913
1153,189534,TRG-351 Diamond Development,Albany,NY,12209,Albany,42.6417,-73.7854
1154,232940,Kia of Jamestown,Jamestown,NY,14701,Chautauqua,42.0928,-79.244
1155,115083,Icon Parking 300 E 59th Street - Tesla Destination,New York,NY,10022,New York,40.7571,-73.9657
1156,165307,ERIE COUNTY SPRAGUE BROOK,Glenwood,NY,14069,Erie,42.6001,-78.6386
1157,60739,ADELPHI UNIV STATION 01,Garden City,NY,11530,Nassau,40.7245,-73.6487
1158,187706,Rivertowns Square,Dobbs Ferry,NY,10522,Westchester,41.0118,-73.8665
1159,186632,VANKAY PUBLIC STATION 1,Ballston Spa,NY,12020,Saratoga,43.005,-73.8486
1160,92004,Town of Ashford,West Valley,NY,14171,Cattaraugus,42.4315,-78.628
1161,175721,MARKET 32 EV BALLTOWN EV2,Schenectady,NY,12304,Schenectady,42.7841,-73.9094
1162,228598,Staples Plaza,Yorktown Heights,NY,10598,Westchester,41.2999,-73.7924
1163,202631,Boiler ER Lot,Buffalo,NY,14214,Erie,42.9414,-78.8374
1164,233315,MATTHEW IMPORT SERVICE AREA,Vestal,NY,13850,Broome,42.0771,-76.0118
1165,114929,Hampton Inn Cortland - Tesla Destination,Cortland,NY,13045,Cortland,42.5952,-76.1857
1166,162439,BURDICK BMW STATION 01,Cicero,NY,13039,Onondaga,43.1707,-76.0962
1167,150587,IMPark 92-77 Queens Blvd - Tesla Destination,Rego Park,NY,11374,Queens,40.7278,-73.8602
1168,44323,Star Nissan,Bayside,NY,11361,Queens,40.7627,-73.7745
1169,115150,GGMC Parking 51-53 E 76th St Carlyle Hotel - Tesla Destination,New York,NY,10021,New York,40.7685,-73.9588
1171,221381,BUL AUTO ALB STATION 3,Albany,NY,12205,Albany,42.7198,-73.8207
1172,235730,MHM WALL STREET 1,Albany,NY,12205,Albany,42.7198,-73.8207
1173,225919,79 South Ferry Road (US-B99-2XN-2),Shelter Island,NY,11964,Suffolk,41.064,-72.3366
1174,162240,NATIONAL GRID LONGWAYS DINER,Watertown,NY,13601,Jefferson,43.9743,-75.9122
1175,230822,EastSide Parking LLC.,New York,NY,10022,New York,40.7571,-73.9657
1176,180889,FOODBANK LATHAM PARKING ONE,Latham,NY,12110,Albany,42.7462,-73.763
1177,72909,Hampton Inn - Albany,Albany,NY,12205,Albany,42.7198,-73.8207
1178,169200,The Spur - Tesla Destination,Southampton,NY,11968,Suffolk,40.9043,-72.4103
1179,115132,imPark 422 E 79th Street - Tesla Destination,New York,NY,10075,New York,40.7143,-74.006
1180,226513,Green Spark Solar,Ontario,NY,14519,Wayne,43.2291,-77.3088
1181,150341,BRUNSWICK HD BRUNSWICK HD2,Troy,NY,12180,Rensselaer,42.7287,-73.6683
1182,207795,1 WATERLINE STATION#1,New York,NY,10069,New York,40.778,-73.9884
1183,156297,PJ VILLAGE ROCKETSHIP PARK,Port Jefferson,NY,11777,Suffolk,40.9457,-73.0611
1184,115071,Rapidpark 25-27 Beekman Street - Tesla Destination,New York,NY,10038,New York,40.7101,-74.0013
1185,168419,LUCC,Lakeville,NY,14480,Livingston,42.8296,-77.7149
1186,202294,CHARGE OWASCO STATION 1,Auburn,NY,13021,Cayuga,42.93,-76.5626
1187,228961,QUICKLEES 1 DCFC1,Avon,NY,14414,Livingston,42.903,-77.7274
1188,213173,TOWNE BMW DUAL CHARGER,Williamsville,NY,14221,Erie,42.9685,-78.7492
1189,191253,799 SENECA STATION 14,Buffalo,NY,14210,Erie,42.8614,-78.8205
1190,115242,Tarrytown House Estate on the Hudson - Tesla Destination,Tarrytown,NY,10591,Westchester,41.0897,-73.844
1191,167633,Modena Travel Plaza,Modena,NY,12589,Ulster,41.616,-74.1439
1192,190532,iPark - 67th Street,New York,NY,10065,New York,40.7651,-73.9638
1193,195573,CDPHP - Patroon Creek Blvd,Albany,NY,12206,Albany,42.6683,-73.7744
1194,197385,Ed Shults Ford Lincoln,Jamestown,NY,14701,Chautauqua,42.0928,-79.244
1195,115121,Icon Liberty View Parking - Tesla Destination,New York,NY,10016,New York,40.7443,-73.9781
1196,182707,DEPOT SQUARE GHENT,Chatham,NY,12037,Columbia,42.3496,-73.5873
1197,115237,Sunset Beach Hotel - Tesla Destination,Shelter Island,NY,11964,Suffolk,41.064,-72.3366
1198,174454,RRH ST MARYS 1,Rochester,NY,14611,Monroe,43.1484,-77.6394
1199,180136,TOWN OF BABYLON TANNER PARK 2,Amityville,NY,11701,Suffolk,40.6842,-73.4171
1200,115084,GGMC Parking E 74th Street - Tesla Destination,New York,NY,10021,New York,40.7685,-73.9588
1201,223103,100 Linden Oaks,Rochester,NY,14625,Monroe,43.1522,-77.5057
1202,229087,The Vintage House,Jeffersonville,NY,12748,Sullivan,41.7784,-74.9196
1203,182060,233 LAKE AVE GROVE 1.1,Saratoga Springs,NY,12866,Saratoga,43.0708,-73.7408
1204,181866,TCR TOWNE EV STATION 2,Albany,NY,12205,Albany,42.7198,-73.8207
1205,194168,170 E End Ave,New York,NY,10128,New York,40.7816,-73.9511
1206,162288,WATERCLUB2582 GARAGE 2 CHARGE,Poughkeepsie,NY,12601,Dutchess,41.7035,-73.9117
1207,235291,RHTOYOTA RHTOYOTA,Riverhead,NY,11901,Suffolk,40.9262,-72.652
1208,203302,EVolve NY Binghamton,Binghamton,NY,13903,Broome,42.0811,-75.8977
1209,192594,VOC STATION 1,Cobleskill,NY,12043,Schoharie,42.684,-74.4939
1210,190056,2112-2124 NY 7 EV1,Troy,NY,12180,Rensselaer,42.7287,-73.6683
1211,168977,Nap York - Tesla Destination,New York,NY,10018,New York,40.7547,-73.9925
1212,221028,COLCHESTER EV DOWNSVILLEDINER,Downsville,NY,13755,Delaware,42.0716,-75.0152
1213,154372,1285 MAIN 1285 MAIN (1),Buffalo,NY,14209,Erie,42.913,-78.8656
1214,162277,TOWN OF BABYLON TOWN HALL 2,Lindenhurst,NY,11757,Suffolk,40.6884,-73.3745
1215,115188,Quik Park 808 Garage LLC - Tesla Destination,New York,NY,10025,New York,40.7975,-73.9683
1216,191382,BUFFALO STATE EV STATION 1,Buffalo,NY,14222,Erie,42.9164,-78.8763
1217,223231,Quaker Ridge Golf Club,Scarsdale,NY,10583,Westchester,40.9927,-73.7995
1218,184331,BNL ISB,Upton,NY,11961,Suffolk,40.9018,-72.8881
1219,175372,PICOTTE 1450 WESTERN 1.,Albany,NY,12203,Albany,42.7003,-73.8575
1220,174734,HARMONY MILLS 1 WEST 1,Cohoes,NY,12047,Albany,42.7754,-73.7124
1221,227775,TPWC  TPWC 13,Altamont,NY,12009,Albany,42.7063,-74.0193
1222,213986,EVolve NY Victor,Victor,NY,14564,Ontario,42.9866,-77.418
1223,223139,Westchester Country Club,Rye,NY,10580,Westchester,40.9734,-73.6907
1224,121069,ROSENBLUM300 1 WINNERS,Albany,NY,12205,Albany,42.7198,-73.8207
